[{"geometry":{"location":{"lat":33.53874059999999,"lng":-82.1311861},"viewport":{"northeast":{"lat":33.5392263,"lng":-82.13083914999999},"southwest":{"lat":33.53857869999999,"lng":-82.13130174999999}}},"icon":"https://maps.gstatic.com/mapfiles/place_api/icons/restaurant-71.png","id":"3de58c15459ac63ef2cda5335f6983618ea13a94","name":"Pita Pit - Evans","opening_hours":{"open_now":false,"weekday_text":[]},"photos":[{"height":720,"html_attributions":["<a href=\"https://maps.google.com/maps/contrib/111585930659531439007/photos\">Pita Pit - Evans</a>"],"photo_reference":"CoQBcwAAAG2fOTyn_orJCH8LEZN-jVp6fXZB7hvhNHTP40l0_HEnx7kT8MD6v-jkkDBGNNRig2Y6IteyaZL_KvKd6Xcm9kFaQh67TZkk-zVACE5-KFl5W5UDwmnTN9ROWJ90C2wk8ApBKGprYJp8-JkLRlPzyr56nNglbt_gg85qlB7rxpTsEhAjspEq2dUAa6aFcnGlR2haGhQGt9FiRDMofvWkQKDJa_XaZop6dg","width":960}],"place_id":"ChIJlaANEKnU-YgRO7--Q75vUOQ","price_level":1,"rating":3.9,"reference":"CnRkAAAABtqk3GqIcroL70_zesZLeoeYvSRbxMna2oIGaYEMfHjbkPeLV7_1mqpUeSGrT1lLTMcR6-6OPZpXYI1vpC7gIVDPOmYgriH9JHj1wiR_kXxNh8DBJDx1WuYQRBLskb44YigIzg_FPaXpSRTmjG1qBBIQAKyARTxr1eimGMEHI-NCLxoUP3HjWOYBamOY47tonVcUG3s2C4A","scope":"GOOGLE","types":["restaurant","food","point_of_interest","establishment"],"vicinity":"4336 Washington Road, Evans","heroId":0},{"geometry":{"location":{"lat":33.53544499999999,"lng":-82.126246},"viewport":{"northeast":{"lat":33.53558659999999,"lng":-82.12602229999999},"southwest":{"lat":33.5350202,"lng":-82.1269171}}},"icon":"https://maps.gstatic.com/mapfiles/place_api/icons/restaurant-71.png","id":"69a3838f15306332670e806a6506adf08c3e40f8","name":"The Pizza Joint","opening_hours":{"open_now":false,"weekday_text":[]},"photos":[{"height":972,"html_attributions":["<a href=\"https://maps.google.com/maps/contrib/102220812251351376132/photos\">Timothy Pitt</a>"],"photo_reference":"CoQBcwAAABwV7L_4RfoZA-GdPm7PnN4vP14r8ClR26oZNggT9lgIxWnX7E4wHFZSINTY2KlvvA1ZdnlRHhQJNtDhwdF4pK_DZgTqZho7aAtW6KsTJDpKD6qXJbeLYfEZPwts3QtiNtn6_eghNHC-7wJh01KfpxcK8fzCHBbBRWZ0AF_Jz1uMEhCUqLpcqUhVLtepDw0K8aBHGhT9qaVpVNO0lJ2hi_KtV2THxh0Fng","width":1296}],"place_id":"ChIJe95Wi1fT-YgRCpRq-c-z_ZE","price_level":2,"rating":3.1,"reference":"CnRjAAAAcOZOLsvxfxvHR8WjIxbhKfubVc48Yc265WQ3dr87AbFOdXMZMkVjzUzRmf-nCZbS_sE50rB4z5Qtms2gGc1gGxghtN9bumcJ54GJLfCwQOv4KI2mKD_egIdaKibaaEyZa6yn8uw2rrhuRGcV0mqLYxIQCs1sxVgQaETpzgaa7zRbGhoUsJDyOXVzGER0U-amf_xqJJl6CEg","scope":"GOOGLE","types":["restaurant","food","point_of_interest","establishment"],"vicinity":"4301 Washington Road, Evans","heroId":1},{"geometry":{"location":{"lat":33.486971,"lng":-82.029885}},"icon":"https://maps.gstatic.com/mapfiles/place_api/icons/restaurant-71.png","id":"87ee39bec30863b556cf32f911dc22df735a955f","name":"Oliviana Bar Italiano & Pizzeria","opening_hours":{"open_now":false,"weekday_text":[]},"photos":[{"height":1365,"html_attributions":["<a href=\"https://maps.google.com/maps/contrib/115530240404092984119/photos\">Oliviana Bar Italiano &amp; Pizzeria</a>"],"photo_reference":"CoQBcwAAAFpbSTHNliW6uuTBngrmtHGhDGkzkPe-TXPrvT_MhAXd3re0-o79JuA3kUDDzbag4QF5Onn78klEfaeqKoHVdIMqDwCUFAINYUaYhgPhFG4Csr96sIsVPZnn_Auu2Ugfi3A1C_0f22VTJMu28EmG71kouCvWYYJiGhFW776APQSnEhCCV5iA8ivfeOmn9ExGOnezGhSY_V_9VJrUlK296FLrWEiUuGuIJA","width":2048}],"place_id":"ChIJ4bwGU4XN-YgRDzBOawJKFe8","rating":4.4,"reference":"CoQBdAAAAE1p2U9dbQEhopGW569pg0YszrbOTewl4A75V2IK_AORCokkbmkwSjV5TFVQjMAYlzuVv4V6lIjVjRul1U11HELoVwvDPV31R5hcJF_XeDl6OStpLskdUNtWCW5hE1rRsJA-ZHURTq533DHt1xXlIIL9p6KqDUueZ4F3VeUh53usEhDEvNNNAI3t25wqVcPRD0L4GhT4bXKSzw_SWBVeF8dCKNq4WA09zQ","scope":"GOOGLE","types":["restaurant","food","point_of_interest","establishment"],"vicinity":"399 Highland Avenue, Augusta","heroId":2},{"geometry":{"location":{"lat":33.53130300000001,"lng":-81.945773},"viewport":{"northeast":{"lat":33.53143165000001,"lng":-81.94522655},"southwest":{"lat":33.53091704999999,"lng":-81.94595515000002}}},"icon":"https://maps.gstatic.com/mapfiles/place_api/icons/restaurant-71.png","id":"2acbacfa9b58526dc490570700d02394b4b9539d","name":"The Pot Smoker BBQ","opening_hours":{"open_now":false,"weekday_text":[]},"photos":[{"height":928,"html_attributions":["<a href=\"https://maps.google.com/maps/contrib/115127143331247068216/photos\">The Pot Smoker BBQ</a>"],"photo_reference":"CoQBcwAAAEjrKwGtproYvkSF94vpnEBAH7I8IycW9JrrDpE6ZgdAxSMG-L2xQwqnRauCr49fYSasQK3LH0E7nV5XJNh2ZbFau4bgnquqICb1kLjyP6VOWmXAiHAI1aZI--JnhZaniqQXVgSWu5RxchUhVkZOQ4QfBx259QuRywAFUkgEdKj5EhBMXIBGpL_h5PFO0wteCQGTGhQRBogH_Qb2VpaR9zpeD1xHyknyWQ","width":928}],"place_id":"ChIJ19wtqVPL-YgRTMZrIaoKtpA","rating":4.7,"reference":"CnRmAAAA7UAKnD_Z4CHnQCvi9PMo8dY33g18MJx2bOF9e-4hkaJPsSPTOYJs_mK4m7umJlDcYXzYhX-zZEKWnSy3Jp13yXSNGp7cVePm4Eby-NqpCsNPwp6gANLaY2Tne0n27UynvgL1wVZ_BwCBQegI086WqxIQpuyuTkXf0hVuwsVS4iBQFhoUpTKHyFcJ9GKWX1pHkctpvinvodQ","scope":"GOOGLE","types":["restaurant","food","point_of_interest","establishment"],"vicinity":"340 Edgefield Road, North Augusta","heroId":3},{"geometry":{"location":{"lat":33.469431,"lng":-81.974114},"viewport":{"northeast":{"lat":33.47017605,"lng":-81.9737774},"southwest":{"lat":33.46918265,"lng":-81.9742262}}},"icon":"https://maps.gstatic.com/mapfiles/place_api/icons/restaurant-71.png","id":"f1041e9efe051bcd14521b57289df86af746cacc","name":"Stanleo's","opening_hours":{"open_now":false,"weekday_text":[]},"photos":[{"height":1240,"html_attributions":["<a href=\"https://maps.google.com/maps/contrib/107345737115316295526/photos\">Stanleo&#39;s</a>"],"photo_reference":"CoQBcwAAAEQdHb45EfqtNWynd9mqXHmAv77ZNv35A-fDLoBj4mXRni-DhODTTo0ZLFLVXXMHVLGqLQAl-YBM1_KXAJz3yj7CnjbgyIgUkzjwKRw89Z471EsuK7Tgy7wFWNVfoS-5I1qeftDI2mIwpjXZ9UJ5DFil94-Raax9IQD6TqUdl_1BEhDxctUgTsSoy151Fl_WXSM3GhTVu8jAXBJ9CxR9L1Xkx0cio9aBLA","width":1240}],"place_id":"ChIJ8WgoSxXM-YgRS2fJHaKLcss","reference":"CmRdAAAAZEVAfrfpZT8OSd4E5VAnT_jTwseZZQaoW00djcvDZMsiF0Rpqc4ZCmGmDaUsqbH_wE6_IEXudxOQdvDPlX8m6QTy8ZlZlHM_y03GELt6mYBOS_IObOnJqJXKtUnkYeXOEhCk4DkZDihTNOraflOoA5W9GhTez5oLBv4ibIsvJBGKPVv90KgNPQ","scope":"GOOGLE","types":["restaurant","food","point_of_interest","establishment"],"vicinity":"1022 Walton Way, Augusta","heroId":4},{"geometry":{"location":{"lat":33.4691437,"lng":-82.0035979},"viewport":{"northeast":{"lat":33.46929635,"lng":-82.00358585000001},"southwest":{"lat":33.46868574999999,"lng":-82.00363404999999}}},"icon":"https://maps.gstatic.com/mapfiles/place_api/icons/restaurant-71.png","id":"2040769901dcf55c4ebdb39df921b0c815ee2cb2","name":"Southbound Smokehouse","opening_hours":{"open_now":false,"weekday_text":[]},"photos":[{"height":2988,"html_attributions":["<a href=\"https://maps.google.com/maps/contrib/115107028930573297257/photos\">Curtis Lynch</a>"],"photo_reference":"CoQBdwAAAEn4HpcjLtV4H2S0W1MdQbskU3UjznPwMXQsURbnz_-YdUO3PbTqbjmE7Ep05tArIzsvVIi_U7XgqVUtd5ZrMWiCu0mnohhxMplL859eCyOMzGgEWDVflSuq9JbQjvCUtcAo-cwcn6UDQfUB5nP57W2o8F1v5bfnqrhQPT5SRzwOEhBCMOX9yN40GE3hApWfhHv0GhQid75EX95TbykGHg_WuJmKxetwmQ","width":5312}],"place_id":"ChIJxXAqmsnN-YgRzfDI-4WgMG4","rating":3.8,"reference":"CnRoAAAApHIkTzojy0JRiHDXao8BtVyKCk84UrsbfPb1caRdmWz-8qQXUOHWAIZwxwlM_4nPmXIRpsNCDNBFNOQ03vvjld1IVriEr2MdVQ9tDAG6DTHwO_QPueSbaZCBNr60HCwYQnmbsD8KPUFjxXOHTHN5NRIQbOrmSteRU2dgK3E5-QNf6RoUqPz6HDFZeVQVxhwPnx_8au0SXI4","scope":"GOOGLE","types":["restaurant","food","point_of_interest","establishment"],"vicinity":"1855 Central Avenue, Augusta","heroId":5},{"geometry":{"location":{"lat":33.5167872,"lng":-82.07581569999999},"viewport":{"northeast":{"lat":33.51714794999999,"lng":-82.07563509999999},"southwest":{"lat":33.51666694999999,"lng":-82.0758759}}},"icon":"https://maps.gstatic.com/mapfiles/place_api/icons/restaurant-71.png","id":"c5d4ddd8490eda28682893a75ac262efee96ce0a","name":"Willie Jewell's Old School Bar-B-Q","opening_hours":{"open_now":false,"weekday_text":[]},"photos":[{"height":2976,"html_attributions":["<a href=\"https://maps.google.com/maps/contrib/118028201245810549043/photos\">Russell Holmes</a>"],"photo_reference":"CoQBdwAAANCK0sRLaEmUjqv30NpHgT-NjgRVybOsCbVnR9r2GSkSNLYj0dQwuSixmMVuv44NSLba80O65DdiRoOyK_unp8HzeEMtUDfop8wY4nlcIlAvefKngXBsLZQGya4xQCqTndlj1Pk1Yo6UClG3AneSRIuM6l70hsjf2sb9oova0h5kEhBrFmiTqQALjyJRjmj-VGrLGhRVBdjPw2IgtUz8WuynYpcy06owwA","width":2976}],"place_id":"ChIJmRVMWebS-YgRAEmPQbagd5s","rating":3.8,"reference":"CoQBdgAAAPYuckbiikqLCmmRrVauVos9ISS8yV-BjthRt6itXhdNh2KqUlmxXJhJHPIwxuFK8JMTR1O3cmTmGKqBTxgFU5MdXUQv4J_nSbRhbPpVhBN5SUYuEc13gFwARO7fKgzzJ3O5y6IsFfG7N-gwwdsd3zJWBG8tjePJOEx19kyOCyv5EhCg6xCfU0MNDmNLTxlhq-ANGhST74DZKOQLlddHrlyfvKTk6myjgw","scope":"GOOGLE","types":["restaurant","food","point_of_interest","establishment"],"vicinity":"3512 Old Petersburg Road, Augusta","heroId":6},{"geometry":{"location":{"lat":33.5433367,"lng":-82.1416832},"viewport":{"northeast":{"lat":33.54503485,"lng":-82.14142890000001},"southwest":{"lat":33.54277064999999,"lng":-82.14244609999999}}},"icon":"https://maps.gstatic.com/mapfiles/place_api/icons/restaurant-71.png","id":"4533ffa795bda5eefae11a0266b075a782fe1d36","name":"Twisted Burrito","opening_hours":{"open_now":false,"weekday_text":[]},"photos":[{"height":3024,"html_attributions":["<a href=\"https://maps.google.com/maps/contrib/102311456126499053375/photos\">Robert Lane</a>"],"photo_reference":"CoQBcwAAAICQfrEAdT4XhBynqMNPwMgsoa_3IedTSyLrM2GK_iiwpEa_sJ1DUUb9SZfTXG8_OaF0sv5EGkdn_dPvuNAdjApe26Z37CikFw7851OkCRHEXqG0POCjhGl8S7Kcq9SzOoipwAW6IVxVdHT_dpI1x1gM_qfwlf1ZlhyZQYaSChykEhC8AwPS172JNWaL55lYCfZiGhTYOlUyjBQvMFpl7DnUlo7q24p2aw","width":4032}],"place_id":"ChIJNwHtr7PU-YgR-t_q4VDSULQ","rating":4.6,"reference":"CnRjAAAAhThFlV7hA2dTSsKk-h3yVaYi_bFeEt5JJ_dORFsxFpZ-inkxYkb78CFtYBabOO4jS-5eaFpcYYsUav0s_yfCLS7ZKyUIBfQn7Z05rmE4tcMvy3ef70C7KQnyoGZBUaHIiUZarJofvaEdVeEWnFRDfBIQsrEwwk9hlQ7juT_1CndKWRoUkWjGWq4WkI9_GcazGP8ABw-A_LA","scope":"GOOGLE","types":["restaurant","food","point_of_interest","establishment"],"vicinity":"4446 Washington Road, Evans","heroId":7},{"geometry":{"location":{"lat":33.501113,"lng":-82.08237},"viewport":{"northeast":{"lat":33.5012303,"lng":-82.08227335000001},"southwest":{"lat":33.5007611,"lng":-82.08265995}}},"icon":"https://maps.gstatic.com/mapfiles/place_api/icons/restaurant-71.png","id":"023acebb0fad557d05676895a4f167da63901047","name":"The Snug Steak & Seafood Restaurant","opening_hours":{"open_now":false,"weekday_text":[]},"photos":[{"height":358,"html_attributions":["<a href=\"https://maps.google.com/maps/contrib/107920548536850854731/photos\">The Snug Steak &amp; Seafood Restaurant</a>"],"photo_reference":"CoQBcwAAAMJ1U1rJAcnbHGfklF0DXVpejG23eKT9fOAkh5RJtbu5XNUyuwVxBmDu_sFI_8nqfTfSknrObJjNAHoAMUeh6Al1TUV_gO5a8eEiIfMV06f2Sgz9mm4Fuei6OrvtQCUnrr6doBBn-NJi08WBMFYdNyy8OhfaJ48uzaqvw3WNHnyoEhDRKa_c-EmBFIgf0ZXbwtpdGhRFufHDwRtvg3iTOxkVI9azpY71ng","width":358}],"place_id":"ChIJ97Umrv_S-YgRPpN6yz4uXLo","price_level":2,"rating":4.2,"reference":"CoQBdwAAAF_HaolTlPycflVRdQHojAR6nhsVhwtlg670hejVtYTVufp0eaTpNoWSL-zbHhOYh7m6nd3Pvg-rgABHSzDGzVv1lrf9Xia4d8auNOwICsrArXofQN4ALp1kS_YBZ4VjLeXPdPb5BFNp1Br83X_ttOZxpQmXzdR2ITMZ3TexiZRnEhBaetv8OaWD-4dmRqXXCeG7GhTTuQHxcdnxfJ7RnJhWfOygLkMopA","scope":"GOOGLE","types":["restaurant","food","point_of_interest","establishment"],"vicinity":"240 Davis Road, Augusta","heroId":8},{"geometry":{"location":{"lat":33.4796054,"lng":-82.132271},"viewport":{"northeast":{"lat":33.4803377,"lng":-82.13219645000001},"southwest":{"lat":33.4793613,"lng":-82.13249464999998}}},"icon":"https://maps.gstatic.com/mapfiles/place_api/icons/restaurant-71.png","id":"7d26901eb866442b1b0d5b4e3a901a42d7f52b61","name":"Emilio's","opening_hours":{"open_now":false,"weekday_text":[]},"photos":[{"height":2448,"html_attributions":["<a href=\"https://maps.google.com/maps/contrib/117751483973641152693/photos\">Jim Brickett</a>"],"photo_reference":"CoQBcwAAAFGoLrDqFMiAO5Cnix2HLHeb79o9SJ6h31bKOl4mY63DmoC0Rks1hgxpXaEYe4CdBYcyXHKoFM7vkosZY5kmj7D09k6xnRAAEImQRA09enhS97kdoJljpAeJiHmDdBzujTOQ7-FCeOnh3dxAdbE6Vdk53ffIubc6_3nkY24JF5RpEhB_MASrUkuafoB996eURAi7GhSj465yfqo7qiIumQx5xdedtNqQow","width":3264}],"place_id":"ChIJiQB1LXPU-YgRjUi0bmGrBI4","rating":4.2,"reference":"CmRcAAAA0pjRYv0m7shDfby5AL4TnVUr5AljhYFOui6t9iUj5mttmbd5HSJcEpxiPS1Xxy4-Jxn7UFHGsZSrXW3O6Z6YpowqkP_VWz7lQhS1BUBRWeqsLlN7S2aBW5VQjHgqE_ZpEhCH4qhciTUePyh5W0Px7XkpGhQ1iVI68i59qUnecI39Q70Fe3Qyzg","scope":"GOOGLE","types":["restaurant","food","point_of_interest","establishment"],"vicinity":"461 Park West Drive, Grovetown","heroId":9},{"geometry":{"location":{"lat":33.5107765,"lng":-82.03143370000001},"viewport":{"northeast":{"lat":33.5109074,"lng":-82.03117635},"southwest":{"lat":33.51038380000001,"lng":-82.03220574999999}}},"icon":"https://maps.gstatic.com/mapfiles/place_api/icons/restaurant-71.png","id":"f3ff7c78f37755538aad350781bde77f20d8a2a1","name":"Tin Lizzy's","opening_hours":{"open_now":true,"weekday_text":[]},"place_id":"ChIJM2NJ2mXN-YgRLSrGPgtRJ44","rating":3.3,"reference":"CmRfAAAAx3xkbOoK_sYFDE9EP1wKUjTARFguXhEKamuvgmufnA38BtvQ4BNVgk0_giMZjazhYzh5oTO9hDymyIZH25EewNs93sL8UEp3khyGO37E-r2GsLkT-o0ildCoSajawsjbEhDgvCt96WBRprp-TlYpI2NuGhSX3vc9e2BJWordAsEEoTdxckvz9w","scope":"GOOGLE","types":["restaurant","food","point_of_interest","establishment"],"vicinity":"2821 Washington Road, Augusta","heroId":10},{"geometry":{"location":{"lat":33.428181,"lng":-82.046977}},"icon":"https://maps.gstatic.com/mapfiles/place_api/icons/restaurant-71.png","id":"b0c931e9c06ae146ace85e7159ea7c9f31ca704b","name":"Villa Europa Restaurant","opening_hours":{"open_now":false,"weekday_text":[]},"photos":[{"height":2988,"html_attributions":["<a href=\"https://maps.google.com/maps/contrib/112491615102508034229/photos\">Paul Hoover</a>"],"photo_reference":"CoQBdwAAAKnBynwEHYricy0FtbpHFZWFKTjbWZ52MiQpeJdgY2HtfjvVL1kFa1iZz8azI0X5drQajYn-Bq2Q24es0vAo1fnb-bpRrAnC_7FtrAo6krBSkDL40UWeUk0jDy2lZNcO433pJAt5XHz_2q9ILcAzcGFajq-TZACaU2ZbwEJ3EPxAEhAvJWB8khKS4_7QSNGYf2n3GhTs50BW_1mDv0CjX-Do0wxKoQ8cnA","width":5312}],"place_id":"ChIJD8Hq6d3R-YgRKBANbKeTXbE","price_level":2,"rating":4.2,"reference":"CnRrAAAAc1rPALyI7VMi4o9l0o-r8OxliGNYZivau4M4KUi2ARellNuEUSHx0YfUChQUd3cCS5y-AiMyqCWdZsRB7SbaYfWjoYwoUX5bHIhzS8ufceeUlCo4hLLTFd_Du0xSDr4iZva3wiRavpaPck3CVV0enBIQoVKgnt815lkiCZufOuyHCxoUc9KoOW38I5u5AvxXuqJm2I0dANY","scope":"GOOGLE","types":["restaurant","bar","food","point_of_interest","establishment"],"vicinity":"3044 Deans Bridge Road, Augusta","heroId":11},{"geometry":{"location":{"lat":33.5149301,"lng":-82.0699417},"viewport":{"northeast":{"lat":33.51506645,"lng":-82.0696503},"southwest":{"lat":33.51488465,"lng":-82.0708159}}},"icon":"https://maps.gstatic.com/mapfiles/place_api/icons/cafe-71.png","id":"d02c3138bd5689849eb7ba2fac557ab926ade283","name":"That Place","opening_hours":{"open_now":false,"weekday_text":[]},"photos":[{"height":4000,"html_attributions":["<a href=\"https://maps.google.com/maps/contrib/107082023814316484028/photos\">That Place</a>"],"photo_reference":"CoQBcwAAAB1S8GzdjSvurr8EqW9QfK7WaJnsm1DGSq6SviFyzqujUah6aIijRT4kJEtk9KuxQnT3ZMXTwKHC9MrYyoSN1I86qZQysP4adrHIZk6LnMC5MvM_crQ4pOkOlO_J4qIHbTuxhXisQ4IlDJY9S-N0xwrKYGpNQGvAK8QJlbaRrk3vEhBRy-krAXLazRD9_-hj0ZumGhTz7RWNYNY0TkatcU_GXo24-HR1Xw","width":6016}],"place_id":"ChIJX_gaMunS-YgRDy28cVtx7Yc","price_level":1,"rating":4.2,"reference":"CmReAAAAO7pSBAELlQJFymz7arckIBPNe6hrAmXX6NyyIrtNiYUkYP6Ivpaz4agXPDDY_yE6CR3Yum4wuEGy8RWnaXqgOx0dCULalCLGloAQM41IO3Qd5d2PbEGLX4G-d32_9XgxEhAF96KH80ak3upf5EESSZpDGhSxblvUMmA5Cwf7l_jqQWIXGAHnmQ","scope":"GOOGLE","types":["cafe","restaurant","food","store","point_of_interest","establishment"],"vicinity":"106 Pleasant Home Road #2a, Augusta","heroId":12},{"geometry":{"location":{"lat":33.477306,"lng":-81.96489199999999},"viewport":{"northeast":{"lat":33.47735815,"lng":-81.96456605000002},"southwest":{"lat":33.47724235,"lng":-81.96500065}}},"icon":"https://maps.gstatic.com/mapfiles/place_api/icons/cafe-71.png","id":"feb7e97e7226342d2937d854fdb02d73bf1543cb","name":"The Cotton Patch","opening_hours":{"open_now":true,"weekday_text":[]},"photos":[{"height":1332,"html_attributions":["<a href=\"https://maps.google.com/maps/contrib/115677701806510777777/photos\">The Cotton Patch</a>"],"photo_reference":"CoQBcwAAAPu_SFfWfXaaV-XFjZj0BmdVNq75aodB0ix2jF9rbN3o_9tIf5Quf6Qk8NaNb5mArw8uiR1pmFcebktpGT4cIxiSUsdwcm9DMV5oaS1aDIVNW4yFErTXfWupKd31e_xkBIfPn0C6AFH8lsZoRsvs_JHDhVleVAuH18HVWncJIRU6EhCKE5pg68Uue1SsaA5zSy0BGhSNjOgG7tgsoX09OEGiwJFfyh8_rQ","width":2048}],"place_id":"ChIJfeYj1W_M-YgR4HyQePM8nxY","price_level":2,"rating":3.6,"reference":"CnRjAAAAQSeW9JlqiYZ6_Jz5rCyHhDeegxMdUw0Pm0CIsFI13lt1EvDHmDLzN136V6TUnRgFbHVwiFPg3mC7c6C6xGGGmDviwyZgWTh6j2LXPoCHnp36AH7hxBNl3xgyJZj7cGv13nZK2B9yyEDEhDDp1PLZBBIQBhhwV2HuyFRImslq5dzHshoUAByQ1DQtHByHJdnn3NU6LEHQRqU","scope":"GOOGLE","types":["cafe","bar","restaurant","food","point_of_interest","establishment"],"vicinity":"816 Cotton Lane, Augusta","heroId":13},{"geometry":{"location":{"lat":33.4767625,"lng":-81.9709711},"viewport":{"northeast":{"lat":33.477172,"lng":-81.97076650000001},"southwest":{"lat":33.476626,"lng":-81.9710393}}},"icon":"https://maps.gstatic.com/mapfiles/place_api/icons/restaurant-71.png","id":"fbeea74f35f8aa8924b152167a967f2ccb0ad233","name":"Whiskey Bar Kitchen","opening_hours":{"open_now":false,"weekday_text":[]},"photos":[{"height":3120,"html_attributions":["<a href=\"https://maps.google.com/maps/contrib/116861873773719991911/photos\">cassandra rose</a>"],"photo_reference":"CoQBdwAAAAV_fBUOVpNlAiS32EGj0ytlVCOBvtLXzNz3FjkG_8yAOcaIBs0N5fNCTZ9wfZ6m6MhfVG2SLEOPYy0sGwY8kyGa8FLVoHRVPkdc8mUXZvFEVfN8BRTcG0U6H5gOA4U3qCaPQLFatZMtsXfxsDygVGe91LG2zuvQlA1EsYuG0OoEEhCFTiOUWIucRw0je4_cVVisGhRvSzKlFdoB8fHyZdmH9PXiWkGqog","width":4160}],"place_id":"ChIJGWJkI2nM-YgRmiaN2QJfE-w","rating":4.4,"reference":"CnRnAAAAUQqiZo1zOW6YVba93DIQXEAsbL9LLlXJolnjUNg-qcB7-TmqeeUcwHHRuROrA6mxQ-JgYXlgZl38AmLQG8JY32NQ_6vcZd3_eNgfpBM4VdcJBRaJE93QKdDJMV8fsddoLGOqXOgMByah07up6dZzmxIQucPDHRnaCJ_h1jeByfGk7BoUqkVy3W81IGFVjpvJsJxkU1t8PqI","scope":"GOOGLE","types":["restaurant","bar","food","point_of_interest","establishment"],"vicinity":"1048 Broad Street, Augusta","heroId":14},{"geometry":{"location":{"lat":33.5133307,"lng":-82.0490378},"viewport":{"northeast":{"lat":33.5135353,"lng":-82.04899384999997},"southwest":{"lat":33.51271689999999,"lng":-82.04916965}}},"icon":"https://maps.gstatic.com/mapfiles/place_api/icons/restaurant-71.png","id":"b706843f9cac80b236411f5d1fdebcdc5d3c4b25","name":"Wild Wing Cafe","opening_hours":{"open_now":true,"weekday_text":[]},"photos":[{"height":3024,"html_attributions":["<a href=\"https://maps.google.com/maps/contrib/101757371930789919393/photos\">Matthew Duncan</a>"],"photo_reference":"CoQBcwAAAHb7BIvb6LW68UtxbHZSoGLxv-aCDAsnLTeh5Xio-FIi0JtidOy4y70Yc9ox3qPzoTYSQLm_lER7Z15ohxGiF6IoY-j50jhuEXDXEJcw__DFmE3hReC4p5s6GivZ6qnD-ltBT5a733ALvUUBbzbYalRsUy-qdip_oTDPmRl_T7W7EhDuOhROmc2sZ_aW5WzdgAoVGhQ5_c5xwI_npcoihMomRN8PZ7sZ-A","width":4032}],"place_id":"ChIJEQ1ld5nS-YgRy5g4UXNbu6Q","price_level":2,"rating":3.3,"reference":"CnRiAAAApH_C0xEvuw1kugOz6yBryAwazlPffp5hLHmrdnq2RTX6XL8MyXVBd6wCEE_NPoveuYbZaitIAxZ2HGq6N4yyaQakTaYd25mn1O2GLU-TWh9jIQurV-AHeLYitJWf_dFsQi5GFUa7budXOS4z6AM9nhIQ74MMj8kqaApi4yIO1yQfaRoU0vnYt-bEg8tGmJiDxM2_y0ezF-w","scope":"GOOGLE","types":["cafe","bar","restaurant","food","point_of_interest","establishment"],"vicinity":"3035 Washington Road, Augusta","heroId":15},{"geometry":{"location":{"lat":33.5101031,"lng":-82.0319215},"viewport":{"northeast":{"lat":33.5106986,"lng":-82.03180314999999},"southwest":{"lat":33.5099046,"lng":-82.03196095000001}}},"icon":"https://maps.gstatic.com/mapfiles/place_api/icons/restaurant-71.png","id":"d74c21533f386076ab736266e9ddebe9e62be16a","name":"Somewhere in Augusta","opening_hours":{"open_now":true,"weekday_text":[]},"photos":[{"height":1836,"html_attributions":["<a href=\"https://maps.google.com/maps/contrib/116804977023801490257/photos\">Christopher Rodgers</a>"],"photo_reference":"CoQBdwAAABAEUcHcqJlPmIyOFcvA_fNx74zOOYpUi10CZs2UiFRH8o6clI_uh6wHTpTcwexlCGOJ9h9CSp867sJcLdcCXOx9eDR6v-1nGKIeRQEGJ_1Gw93C8BWj7B95wrKa2siS3ltDrAa2xRPnJFYUSisg28wp5aWLwJ01IRMRsczIv7xfEhBK6F7ZFEdh_U2UNZdFoJupGhRavKsnewSF6UZ5nRXn9VJ1nB9Qhg","width":3264}],"place_id":"ChIJMUWkr2XN-YgR3RtwXG2HAek","price_level":2,"rating":3.2,"reference":"CnRoAAAA4jVjytnFrrzFXyjOH-XhVVtbLOPZQBLAakTgDY3kDh3FHILzJGYp4oifpyHR7aFy8cvCFCRLdOWYRLVkqOGh3T5Z10Ie8DO1mD3dee9_OvEc9BVSZtGOUr39h2oN7ouPdizsz4TeKUO58YtUrqZ_bhIQ9bC9dH2XfCxqb-DKXH3FLhoUvjtt6mCtBkw_nGtuOl8quRj0ebs","scope":"GOOGLE","types":["restaurant","bar","food","point_of_interest","establishment"],"vicinity":"2820 Washington Road, Augusta","heroId":16},{"geometry":{"location":{"lat":33.5509633,"lng":-82.0880832},"viewport":{"northeast":{"lat":33.55098700000001,"lng":-82.0880051},"southwest":{"lat":33.55092459999999,"lng":-82.08831749999999}}},"icon":"https://maps.gstatic.com/mapfiles/place_api/icons/restaurant-71.png","id":"12a248a972a71259d3a9c76517656230722dee73","name":"Bird Dog Bar and Grill","opening_hours":{"open_now":false,"weekday_text":[]},"photos":[{"height":781,"html_attributions":["<a href=\"https://maps.google.com/maps/contrib/109958238576062038174/photos\">Bird Dog Bar and Grill</a>"],"photo_reference":"CoQBcwAAAKUUINSfW2mCt4EHkhsIz26fk8eCbGbTxreyjoypdQHqzt2n5QQ13wQ4NLVAbIeF7kZx2PAmNU4gjtl2Hcx-cIYKpQ8OSZyiUnpIi9kx0ZlFkSWukG4hXmKPiFnSQBMv8XgbDKwSQPvTqGPmPMQRkrSxMimvJ0wrEJk6dpJH7VCWEhDm5rieVesQh8tdJ5QpFhRhGhTP9yRiaydK1VbSTqBE7edYFugDgA","width":1092}],"place_id":"ChIJ1XZspSkt-IgRZ5RUZKpqI3s","rating":4,"reference":"CnRpAAAACoB_arKckC1CDVxgvUZeTauGjut2spM3RnqVbloTWtTCI8Qn9eADSwmuDmUHgPN7AiXmnciXEohGGRuPjQkVd8xhMeb2u8z2vul2m7QHBKBj53Q5dH7Z_9uNpk8o9o19I8zjenPGS1P4rrR6GI_7-RIQKGB09sPd_wFxNOlHXkPG4BoUo9ugTPLTDXJaD0nUXUYTqB7n-P4","scope":"GOOGLE","types":["bar","restaurant","food","point_of_interest","establishment"],"vicinity":"3851 Evans to Locks Road, Martinez","heroId":17},{"geometry":{"location":{"lat":33.5440908,"lng":-82.1423913},"viewport":{"northeast":{"lat":33.5444085,"lng":-82.14136694999999},"southwest":{"lat":33.5439849,"lng":-82.14273275000001}}},"icon":"https://maps.gstatic.com/mapfiles/place_api/icons/restaurant-71.png","id":"6176915326fcc7b61cf476061d2020358a2a980b","name":"Shane's Rib Shack","opening_hours":{"open_now":false,"weekday_text":[]},"photos":[{"height":2048,"html_attributions":["<a href=\"https://maps.google.com/maps/contrib/107793419375665633490/photos\">Ian</a>"],"photo_reference":"CoQBdwAAAHoyXjFT-Zc0gBw-NPw2mXROwo8e5ljvKTrkEFh80nzc1GqfFv81lTeZ8JcwEfKVfUrok-Ofk7g_d4vbl9k5sIxTBnMK7i1ks2dfSH_SntttaExPG4Nps9dEOkt4KrAjBxOExi2OgGe8J9rTMshlNUps1VfMtuWrRa_OBdA3OnQOEhDhtC9XMEiHllLgZgxjen8qGhQzii-PfH45hejZMjAHv84X_q9hOQ","width":1536}],"place_id":"ChIJNwHtr7PU-YgR_ea9u8UmmXg","price_level":2,"rating":4,"reference":"CnRkAAAAhY3kCVebjr9fQtXcsYC6TeeRRkHesZxge0U9QRzPj4H1Zgfc8GC8MjqJVU1xHShCnLq59xUAHPJd9Ipc-hd9M-hGUuglPmBMlk0TOi4KyZPcSqdcGDwNZwm4bbLGRu-6-gaGJNpTrfPCRMphYu1ksBIQ30sGspJmZ3vyqDST6bW5hBoUqZu-F5UksrfoMpm4q3gX9Q8p0Bw","scope":"GOOGLE","types":["restaurant","food","point_of_interest","establishment"],"vicinity":"4446 Washington Road, Evans","heroId":18},{"geometry":{"location":{"lat":33.5030028,"lng":-81.7080785},"viewport":{"northeast":{"lat":33.50343105,"lng":-81.7072772},"southwest":{"lat":33.50286005,"lng":-81.70834560000002}}},"icon":"https://maps.gstatic.com/mapfiles/place_api/icons/restaurant-71.png","id":"270d000c912ba1ee1f90f034ddf1ccbcc6805470","name":"Shane's Rib Shack","opening_hours":{"open_now":false,"weekday_text":[]},"photos":[{"height":442,"html_attributions":["<a href=\"https://maps.google.com/maps/contrib/107313311592755906442/photos\">Shane&#39;s Rib Shack</a>"],"photo_reference":"CoQBcwAAANy3RMmtXWMNnl08sM_BZcBEaEvj4w8OxrhYdput1TSQDKvxXsU19ja0Cc20Jg66p95lGcbqjsZyfL4rzDcLHKXpHPSy3KDk2RHqZV5JRGxBOkYxrOqGbG2RMLMsNHMc5T0DOscwq7ECFr89qOvdzCZKAh_6Kx5T1ioJ6twtM9vhEhC9PHxvj2HLrF9tEf1rIuc6GhREKJDZSqeB-mlxDxPiaCCn7-IatQ","width":600}],"place_id":"ChIJZwQTQ7my-YgRbDFLX4w8ELM","rating":4.3,"reference":"CnRlAAAAWViYvCFPKT9YudnPYlOK_14PkSbxtzene79NLg5QV1z4Kq4IhZlKZj51blekFpj5l7WVCyw3C1Do3CiVJycIKnL0_FExLyu6y3bWFVR741feSPL_ERLHARolGUw-ZUQZ7ojRQKG6PL74zAjyehwANxIQzeF15vOd2j2dn-uQm1tHhhoUWtZWxDCrspGThcHL7_9eXXp9DgI","scope":"GOOGLE","types":["restaurant","food","point_of_interest","establishment"],"vicinity":"2645 Whiskey Road, Aiken","heroId":19},{"geometry":{"location":{"lat":33.4863818,"lng":-82.03019139999999},"viewport":{"northeast":{"lat":33.48647474999999,"lng":-82.0301703},"southwest":{"lat":33.48610295,"lng":-82.03025470000001}}},"icon":"https://maps.gstatic.com/mapfiles/place_api/icons/restaurant-71.png","id":"1906bfb9591f90e6f2b03b64908bfb8f844efc87","name":"French Market Grille","opening_hours":{"open_now":false,"weekday_text":[]},"photos":[{"height":816,"html_attributions":["<a href=\"https://maps.google.com/maps/contrib/103217006850513285447/photos\">French Market Grille</a>"],"photo_reference":"CoQBcwAAAMJmYhfCP5kJUpEYKGvaaNvHlV7lnE8UQl-XKNOXIA2VMToB55nrSR3CTh3OS-TonuejTGcswSF4ntZAzN-mid4og_J5N_Eax-WUw0idwUYwPyv7d1Rx4BKo9A4vrYPHDx5NzEUIRvHUJ_N6dSGM5cbuLLW45wkPbcRshAbJ689WEhDatPQAyCh8aIEOGt5GTaMqGhTFjAK-1cQbJSTAFuROH0U_U2Z5mQ","width":816}],"place_id":"ChIJYelNNoXN-YgRO1b5E_zq_kA","price_level":2,"rating":3.4,"reference":"CnRnAAAABg0zjXVQT9-KG-XE4F12s_J4fyZJy2X8YaQHX4t5iLrgLhaIMYoaz_m9_4E2rdoGMPdjgoZoazLugWFRkEFG2sJGUZlT79NLVutcHcEANLV9IPUK6zWS2ZEudhecg7KUm838QiPz-F5e9Bcw8rcwiRIQ1AFTRS3gR-AG9u7amG5kMBoUHrmjYadUwSd0_Ws8hn_wo0EsB4c","scope":"GOOGLE","types":["restaurant","food","point_of_interest","establishment"],"vicinity":"425 Highland Avenue, Augusta","heroId":20},{"geometry":{"location":{"lat":33.4518283,"lng":-82.0386122},"viewport":{"northeast":{"lat":33.45201724999999,"lng":-82.03859415000001},"southwest":{"lat":33.45126145,"lng":-82.03866634999999}}},"icon":"https://maps.gstatic.com/mapfiles/place_api/icons/bar-71.png","id":"349c0b9804d122deb284358f1c34ab711e1db213","name":"Skittlez Bar & Grill","place_id":"ChIJTbRzKP7N-YgRRV6uzWlQXk8","reference":"CnRnAAAA0nytc-n42HdccwBQOk_tzpYSjFQbc_PrSyN6lfjTS7DH5RYNaiIQuGQFKu9Ls1Kmkd3VeqMMIEV_sad5qrIuGdTLpIlzW9r1Kh2pWf1hRpqcZTUqyoHxTPMh5TepciS7wQqCxY3bwWBRAi8VjgNHXBIQsnfYLsGdZOY5GsfxGNbpVhoUIXZbYUSZpXy8PjSEteaLRgQzzzo","scope":"GOOGLE","types":["bar","restaurant","food","point_of_interest","establishment"],"vicinity":"1855 Gordon Highway, Augusta","heroId":21},{"geometry":{"location":{"lat":33.49544329999999,"lng":-81.9605589},"viewport":{"northeast":{"lat":33.49685915000001,"lng":-81.95853389999999},"southwest":{"lat":33.49497134999999,"lng":-81.96123390000001}}},"icon":"https://maps.gstatic.com/mapfiles/place_api/icons/restaurant-71.png","id":"f17e9f1044e6644b615069961a821c6877d7e72b","name":"Sunrise Grill","opening_hours":{"open_now":false,"weekday_text":[]},"photos":[{"height":3120,"html_attributions":["<a href=\"https://maps.google.com/maps/contrib/107565682981111105153/photos\">Ramses Torres</a>"],"photo_reference":"CoQBdwAAAA3Boq4Mt0EZ0Nsx-j4xc8i386eCsn0BcV2Rs87VJsudaZ4bab_jXWMxEnEIfFBowFk3QFlrcjE98bfOj5j0gB88X1OBlqK4XTnip6slx8edT7HjiJpplFM8ArIM2QR8GlGcBtcoRg8__1k2lqZuzUytwJFipCoI-JhdNf88e8w4EhBTO5vT6rTwrGm9Qh4A_lsnGhRB3Vs2Lr3Uk5lit0skHVOSwjk9-w","width":4160}],"place_id":"ChIJPwhzA4TM-YgREuLdYXxM-8Q","rating":3.9,"reference":"CnRhAAAAAPHRawwgnllyvpQuEcle3KrsOuFqUV6hMLkxBhiSlt425fcb-HPV1fT1cxjvFeXQIaLK9jZd2y8-C4uT3ArYcLJycNspN-9iRILDhmh_h_DO5pe-xwLG3lYcD4qttduEBmtC-7W_N2UckWrtgRDHWxIQgOHb0CbVAHFogXxsrql0SxoUctkCGLRbmRZ57OXKcTyThUgeO-s","scope":"GOOGLE","types":["restaurant","food","point_of_interest","establishment"],"vicinity":"404 East Martintown Road #4, North Augusta","heroId":22},{"geometry":{"location":{"lat":33.54378,"lng":-82.13908719999999},"viewport":{"northeast":{"lat":33.54398449999999,"lng":-82.1389693},"southwest":{"lat":33.54316650000001,"lng":-82.13944089999998}}},"icon":"https://maps.gstatic.com/mapfiles/place_api/icons/restaurant-71.png","id":"c0c7d56b83acb109423107c4353db485764998c6","name":"Evans Diner","opening_hours":{"open_now":false,"weekday_text":[]},"place_id":"ChIJPV62frLU-YgRamYK_tgydjk","rating":3.2,"reference":"CmReAAAASXHw8jNBzK6AxVuafTKetT2wsV60gmTtC-tHbO7Hzto-D_9otV27hkSsGwIuHNvLnKIap_laYDxVg8g3AQzz8J_20lF-LGR9Tbvv7mx7_wli_-cN1c012fjXBwKj6NHbEhAwS_hz2jigE8g6nD4DCOtoGhSG-24meHXu2SGiKRlgQ3rGYV2swA","scope":"GOOGLE","types":["restaurant","food","point_of_interest","establishment"],"vicinity":"4429 Washington Road, Evans","heroId":23},{"geometry":{"location":{"lat":33.48942660000001,"lng":-82.13619109999999},"viewport":{"northeast":{"lat":33.48974099999999,"lng":-82.13546224999999},"southwest":{"lat":33.48932180000002,"lng":-82.13643405}}},"icon":"https://maps.gstatic.com/mapfiles/place_api/icons/restaurant-71.png","id":"0c5f3659d9edbab0d37d5963631fb80bf3a3d4c7","name":"Sam's Hot Dog Stand Georgia","opening_hours":{"open_now":false,"weekday_text":[]},"photos":[{"height":2322,"html_attributions":["<a href=\"https://maps.google.com/maps/contrib/113898969409547771493/photos\">Seth Granade</a>"],"photo_reference":"CoQBdwAAAKq7uaFuFkUvv_6q5hwGJAx8y5ZJTA8PM-AAEeUnsKvG0o232nOjJY38xkyhniaqKrzdOWyIKxw-J8buqHdHBF15i5r8lt9ojL-5kZYiSQ9A4d6RVwuq5xKM6gveCal8n4vhlZC5kWCwvwWR8W3dGMHB75wBzY2btzjKAiTGUtzjEhA0nl-njXxZfcPTcT-rmVdRGhThlh328DxV3vbyLW3eWj9JmxGbVw","width":4128}],"place_id":"ChIJq6qqqtrS-YgRIiRsqeoP_nY","rating":4.8,"reference":"CnRuAAAAof94WgKQhaEiE041jKm9sOCZXQfCMKITpYMaYCBtiJ2NL4p-vyzLaa8brcDoEFWjzYtGF99lzBjG6brdl_nWXpmAjbxq8FribEgRfFnfm8alioZiTsM9wltYXT-acYKdlCRIdPjIGB8MObF5WZTKYhIQ7Yr5qBJmz4hwzZl9SqaiyRoUhhAjIqeziK_9DeLoLFwIVh0Jv4M","scope":"GOOGLE","types":["meal_takeaway","restaurant","food","point_of_interest","establishment"],"vicinity":"337 South Belair Road, Augusta","heroId":24},{"geometry":{"location":{"lat":33.4752756,"lng":-81.99595430000001},"viewport":{"northeast":{"lat":33.47573610000001,"lng":-81.9959342},"southwest":{"lat":33.47512209999999,"lng":-81.995961}}},"icon":"https://maps.gstatic.com/mapfiles/place_api/icons/restaurant-71.png","id":"ceaf52abe1513fbe2a3e434dc46ac85dc3285f5f","name":"Checkers","opening_hours":{"open_now":true,"weekday_text":[]},"photos":[{"height":1192,"html_attributions":["<a href=\"https://maps.google.com/maps/contrib/118047279081473413665/photos\">Checkers</a>"],"photo_reference":"CoQBdwAAALlEFFdeZy3w8wK5JJBIew71WonUelxJL_05c1HHmndX8-451xNvva9IjwAZ-FCks5TJSGWkmemPS3CKy8pqmcY3nkYWr1RVOGVVqGoEbwUFX3fiYfAesoA2VfgVweRC-WYtXps-ZF9uE9fthd3cBxYXEw3J-4TKkyi_2zrnUsX1EhBfHwFYgHUjuJ8W9Crc9UZGGhT9vqU6lvk4ihSE7qBLjZIIHtmL9Q","width":2119}],"place_id":"ChIJLX6Mg0vM-YgRKLItNIeE2No","price_level":1,"rating":3.1,"reference":"CmRcAAAAGitfbnOFFMOsnC4dK9FPyXGub0E76IyukX6fFQlBlFtMg8qi3HS0TNcjqQP2wNfGLlIAmigzT9g_q_c_XrzReYK5_7cg5aLG5QUdr2oxUdAM_MnXRB8p7Jj0qTyXyuLtEhAqif4YkrFto7IKe9UvwXh5GhRJK1DIyLiWOummohjzJNC-1evpkQ","scope":"GOOGLE","types":["restaurant","food","point_of_interest","establishment"],"vicinity":"1720 Walton Way, Augusta","heroId":25},{"geometry":{"location":{"lat":33.5055936,"lng":-81.9581431},"viewport":{"northeast":{"lat":33.5057195,"lng":-81.95812115},"southwest":{"lat":33.5052159,"lng":-81.95820895}}},"icon":"https://maps.gstatic.com/mapfiles/place_api/icons/restaurant-71.png","id":"15c117db13a809f1521d02bd32243927d2cb2bca","name":"Ryan's","opening_hours":{"open_now":false,"weekday_text":[]},"photos":[{"height":608,"html_attributions":["<a href=\"https://maps.google.com/maps/contrib/107613586952898033555/photos\">Ryan&#39;s</a>"],"photo_reference":"CoQBcwAAAEP_ripNffvqM-MNLIr1z066hb0aLX8MsdkJ7480OpDrmtqv9BhcCz4pwaQtLjItgCsf5BAFKjGihzdoQyTx1ZICa6jFYxxZljPNmmpYP7BeP9vTrXVU6_0LFa6Gi6Iv-KicFkZfSRuS9EIk3NVNFA8bll9uzI1TRjG5zUPeQxMzEhArmN4CnKO1K0NZ2Y66i6YgGhSurTgbTvPfRVROH7DqSxm6s-ug-Q","width":1068}],"place_id":"ChIJo6Cfa5zM-YgRdqwj547m198","rating":3.3,"reference":"CmRaAAAAQmt1VWbzUU1exL9MV2RknJZ38Lp224LQYx8I4Pt8NXIsuO7eTk45YhCEyU6bgxk1g8C891XzSpXtlJUkGGABoP1IZ8EhMa7Mnvfdi3QlSvtoxJKURx-TrXTQpObLYiRuEhCU8A3AmnYUAV5q1hLrZ-gSGhQGKvZw475R_ccuyp-bFFtZlu6s-w","scope":"GOOGLE","types":["restaurant","food","point_of_interest","establishment"],"vicinity":"1275 Knox Avenue, North Augusta","heroId":26},{"geometry":{"location":{"lat":33.475512,"lng":-81.9650405},"viewport":{"northeast":{"lat":33.47560185,"lng":-81.9649568},"southwest":{"lat":33.47548205,"lng":-81.96529160000001}}},"icon":"https://maps.gstatic.com/mapfiles/place_api/icons/restaurant-71.png","id":"8f966d64049f3c5f7c3d53d5482f93a236a41c62","name":"Joes Underground Cafe","opening_hours":{"open_now":true,"weekday_text":[]},"photos":[{"height":459,"html_attributions":["<a href=\"https://maps.google.com/maps/contrib/102693717314219311828/photos\">Joes Underground Cafe</a>"],"photo_reference":"CoQBcwAAAAUWHGJZWOgOZlskUCiQSg5xzVJsZX7gi-RBYvWUgiMQ2-WJzYClvJSCRdJlF5RBg1PbphRnH1uNjtoKbgTiZwMLsrmHpRQrs27Bnhodr0RLIjCUx3rgF73Eruw5lVex_WUvzCxH61HpBefSrdFxOLWKhdleIY16ZVdupvKfqVLLEhB7KIJjDnPVzufWrUeDvbFhGhQ102dSRow0FMJTgI1VZ_C_5NsLYg","width":460}],"place_id":"ChIJgyjjIm7M-YgR7avk9ATjBF0","price_level":1,"rating":3.4,"reference":"CnRoAAAA0sq7hXGqo5fIy81LfpIhKLJRM3I6i04oVqjgFubPgM_s3l-c2MaC7fePCBXoP9Tb9aIDqTb0Duk6Ucz00J2ST4ZfJjTFQC3Lj_OoVTLOlIBE-3znSAmTMrEA6XLrlrzkzEaIyCnGK8paj1bP9F9amRIQLbaZSeCbtiOAvyRB0n4RhRoUeX65ii_h4jWiqzPUSkp1DR8yGCA","scope":"GOOGLE","types":["restaurant","cafe","bar","food","point_of_interest","establishment"],"vicinity":"144 8th Street, Augusta","heroId":27},{"geometry":{"location":{"lat":33.4292076,"lng":-82.0153885},"viewport":{"northeast":{"lat":33.42942855,"lng":-82.01522229999999},"southwest":{"lat":33.42913395,"lng":-82.01588709999999}}},"icon":"https://maps.gstatic.com/mapfiles/place_api/icons/restaurant-71.png","id":"ab0f4a75b2e793d4c41cd006ed8415ba242955ce","name":"Road Runners Cafe","opening_hours":{"open_now":false,"weekday_text":[]},"photos":[{"height":3984,"html_attributions":["<a href=\"https://maps.google.com/maps/contrib/107635439777464844830/photos\">Deidre Roberson</a>"],"photo_reference":"CoQBcwAAAEEwTT4LU5V0SW5AVUe6iYnCCEY7tpxAYR8W-5q8qZNDTJWv_3kBixanmW5TudzUeAn03jyrO1HKmlcAuME58Wd_qYZx6ZOAIHUNqfNSfxCjj74gutpwbIalQ_UVKN35jTsXeSllIlLR-VGG53N7fx4C9TmGExY3Dt2OfME9k6EjEhAtonmrQj72iivXzw46vA9CGhT293WTND9p9IEagTBK6JWiEIjmTQ","width":2988}],"place_id":"ChIJU8GrQ2rO-YgRz494qk2alaA","rating":4.3,"reference":"CnRlAAAAtCTAcxFyDhWiHxBR6OCAEPQuG5KIz6rBDCMJuHVYHmI3bvq3rGMlaeU5LoAes93emyCPFTCsKagzSYdTx9Cx2We1V7PaCACfG8xMvbhgASEVx15gnguR1zcis18-I6xdqBfiuMyn2POZphnp83lGgRIQwB47IEMSF-BELV2FNXpz2BoU5CwnA1i1K27O9lFAYxmxq--WIqw","scope":"GOOGLE","types":["restaurant","food","point_of_interest","establishment"],"vicinity":"2508 Peach Orchard Road, Augusta","heroId":28},{"geometry":{"location":{"lat":33.4754962,"lng":-81.9697709},"viewport":{"northeast":{"lat":33.47573904999999,"lng":-81.96954955},"southwest":{"lat":33.47541525,"lng":-81.97043494999998}}},"icon":"https://maps.gstatic.com/mapfiles/place_api/icons/restaurant-71.png","id":"09e64ebbed8ab8116422027fca7ae8eafa90923d","name":"Sandwich City","opening_hours":{"open_now":false,"weekday_text":[]},"photos":[{"height":2560,"html_attributions":["<a href=\"https://maps.google.com/maps/contrib/108371957065139310921/photos\">Sarah Russo</a>"],"photo_reference":"CoQBdwAAAOnyk4ma9fPeSuFyp0aXdWx1fBkYorjDw0bD-MsFEJEPT85nrS6MLcmqYbQ5Bz2HNk_YQFmq1zom5tKlpSGX0-ihBzFemseE_YIGJXlBCSKqcd8roNjZQzW5avM3Y2iL4wNmjrmXs5YOurRLKPW5Vfec4Yhn7WAhSm4iepV6KcVbEhCaa0W4ORDhPOj_rqJJjM9IGhS6YE5yzcz1qHTjrPMyGjDztqG7Bg","width":1920}],"place_id":"ChIJ5R4kTGnM-YgRp50LBjTgz-U","rating":4.8,"reference":"CnRhAAAA5cZea_SvIqPY__1SzahlmptZznZCD_yOHGsXS5C7n98HSGn-kw-ZZHrQqkaVKOLul9wZHTYs96m0HIwm3ynoo8hV0KJYxQzHs3P5mM5TJj2bSvqHoKiAtv_rtY142qJJ5PQHYEzWmLNajt4uuq11xBIQckdhQa4HOyBS4Rmx84DEEBoUblHGQzW_P1AyBb42mgxrd5YgC9Q","scope":"GOOGLE","types":["meal_takeaway","restaurant","food","point_of_interest","establishment"],"vicinity":"302 10th Street, Augusta","heroId":29},{"geometry":{"location":{"lat":33.48801350000001,"lng":-81.9820506},"viewport":{"northeast":{"lat":33.48814144999999,"lng":-81.9818181},"southwest":{"lat":33.48797085000001,"lng":-81.98212809999998}}},"icon":"https://maps.gstatic.com/mapfiles/place_api/icons/restaurant-71.png","id":"fe497b39764855ba4b43d09086d968fc791bc894","name":"Manuel's Bread Cafe","opening_hours":{"open_now":false,"weekday_text":[]},"photos":[{"height":1314,"html_attributions":["<a href=\"https://maps.google.com/maps/contrib/114484729862265424608/photos\">Manuel&#39;s Bread Cafe</a>"],"photo_reference":"CoQBcwAAAJUvA_eSMUzRNTF6vugo3Y5jLNv2UOrLShrnpFppe3zgNqh3rdjHf2R0J5zz8cK8JZC-1oymcBKGUxJM4j-H38-jdZThBRHisqtmSJBVCbsIRX_cbaXBvuY6r8Ge-qPkvfrk1NJeqEHNVE5WiI1OXe32BXoT1ZafCsUNPkFPYAScEhAjJaP8E4V6vLsV4zyRQZ9_GhQhH-ZhLP7vkSr-zKIb7MgSs_G69g","width":2000}],"place_id":"ChIJi9teKFnM-YgRdO1Bb1kQRZQ","price_level":2,"rating":4,"reference":"CnRnAAAAwlxu0dSDasQcSRZdsl62rGodAQgZYeA-f4W-slSUWKGi9QeBFwEaGNuaZlelq4Zl6te7eYBChskY9fe12WrI-P3nLmcz6LtL5j2xyAQ4vR_ccRbZyHXQNGrehxMvZyq863p3XBh-Hr7ieupzkB4hyxIQkRO0ZKWsrQ8mmHLIv7RYphoUMqITbLS2Blp88jwSSczh06mFsU8","scope":"GOOGLE","types":["cafe","restaurant","food","point_of_interest","establishment"],"vicinity":"505 Railroad Avenue #100, North Augusta","heroId":30},{"geometry":{"location":{"lat":33.4780862,"lng":-81.9661852},"viewport":{"northeast":{"lat":33.4781729,"lng":-81.9660959},"southwest":{"lat":33.4780573,"lng":-81.96645309999998}}},"icon":"https://maps.gstatic.com/mapfiles/place_api/icons/restaurant-71.png","id":"f5d56ee60ba739e6d85af85ca70e46babe915752","name":"The Boll Weevil Cafe and Sweetery","opening_hours":{"open_now":false,"weekday_text":[]},"photos":[{"height":349,"html_attributions":["<a href=\"https://maps.google.com/maps/contrib/102168892558548308513/photos\">The Boll Weevil Cafe and Sweetery</a>"],"photo_reference":"CoQBcwAAAIjMlZ1KQx4vlcOdBjo2D6059W9Odun_XQm5escDMK0TEi3xy333jLx-YO0YYEKffM-CjwZdskbJOzBSmeIFoMm4IOKiac2bWb-38TYAarj__GcE0djNS3P6auAXFTN0JW-DLZbIpZ9SGbPWOe-MSTiDyBh1T93nzIUi3EQ2SXLTEhDAmAz6X6efDhW7KnH4ASFcGhRSAKhHS4DF68sqOQs_FfNxrnBrzg","width":349}],"place_id":"ChIJNWDTu2_M-YgRbPnJD12Q7vc","rating":3.8,"reference":"CoQBdQAAAC7cGlNQ6Jqym05nH4cONOLokzuiejJpAairk6470QrZ_S90TzjW1uWZE8UL_Io_mwtsi4wPdT12pClS00LTVA-DyusVtO6ikk9g-b8M05vGuhltlkdHYoC5VsHnOS-VecqO9vWYX4hqUt0BnJVlFpiGNTG8GDysMo57tIlfawjVEhCAPwizNRoMbsK2olMosPPFGhThnVP65mz0xaGATRLQuCSLuNX6FQ","scope":"GOOGLE","types":["bar","restaurant","food","point_of_interest","establishment"],"vicinity":"10 9th St, Augusta","heroId":31},{"geometry":{"location":{"lat":33.4777339,"lng":-81.9827596},"viewport":{"northeast":{"lat":33.4785145,"lng":-81.980884},"southwest":{"lat":33.4774737,"lng":-81.9833848}}},"icon":"https://maps.gstatic.com/mapfiles/place_api/icons/restaurant-71.png","id":"6a01f59bffbf84e391539e4e9995a346ae569645","name":"Fat Man's Cafe & Catering","opening_hours":{"open_now":false,"weekday_text":[]},"photos":[{"height":1066,"html_attributions":["<a href=\"https://maps.google.com/maps/contrib/115793725987723473805/photos\">Fat Man&#39;s Cafe &amp; Catering</a>"],"photo_reference":"CoQBcwAAAJgv2qnnAcUlmrRbu1A_vOo16Zzrm-0iVQLbYUxwwxBY4Ekk0DtIBp81XBElJBH8a3-PSyoRaJTqW2N_SO9J1p04zWGmFMMZmQlEzi4eThAIHPcER2wksR2v4qw6yYHhkQyBodHtGU8K4tUAAddt5jmtnU-q8UGPYlIY2_ybfSTqEhBMvT47eSBgz3SazEwbaPoGGhSXmXqjw7CiMHXylLUk4-_BsbLVTA","width":1069}],"place_id":"ChIJK8hFakTM-YgRHJ6Kt-kEBns","rating":4.3,"reference":"CnRsAAAA_LFDrgRA9PCPKjyzsQJMhSnFg9aw7Bk1147K3Dn9HILP69zOzRihd92ITnyqfDGlyBzJmD2RwRoyv2YC9ugkGI1dtYqWID46vCTSoE4Fk22TfEphh-nToZfXJNa-R5iS0tZV0MamWzQvbw8tkCTUQhIQ2fSC77qqWEenwyfIs_NDbxoURHg6ix-_LZJ5oCshr58CBXBCip4","scope":"GOOGLE","types":["restaurant","food","point_of_interest","establishment"],"vicinity":"1450 Greene Street, Augusta","heroId":32},{"geometry":{"location":{"lat":33.50943049999999,"lng":-82.1070972},"viewport":{"northeast":{"lat":33.51007795,"lng":-82.10696744999998},"southwest":{"lat":33.50748814999999,"lng":-82.10714045000002}}},"icon":"https://maps.gstatic.com/mapfiles/place_api/icons/restaurant-71.png","id":"77e74c0ef483d297c46df853ba7615d72dc60897","name":"Yosko","opening_hours":{"open_now":false,"weekday_text":[]},"photos":[{"height":1024,"html_attributions":["<a href=\"https://maps.google.com/maps/contrib/107484262411874555621/photos\">Nicole Bustamante-Buzhardt</a>"],"photo_reference":"CoQBcwAAAMq7PiFFlMVIwd9fpT8DRORKgn02M5MvlEL6m1FblyG8Ax1gw0YKK2vU_KwlYNxVWL5NqLOberRtL8cA4itm1ZakMVpUSlH3F7QErAhdpkLrq-_cH9958DajhZI4ZKcVA_8D7k2FTuQSpUdVYd1lCyMcIqMbeML7Ajjxjd4QG6MiEhCiF4WK2mQYjlW9qHpY76c6GhQzCdjrvRO5NOqY7B9w5hPiFQry4w","width":768}],"place_id":"ChIJJ0-GGXPT-YgRJpxlA-FP2Zw","rating":4.6,"reference":"CmRZAAAAu-SRpAHd1L-UQYPzW5vddlheERDjHsaM5mnTHt5PJrMS8NAhd_Pro4QnfekfrZP_pIm7k7KB03m1KIhsiCHYimv4NL1HcZv0CpIsyxpBOS2PBtCmSLpgWfmhOkDG0K0eEhDKbbXDqsS4K42ETu8F0KDvGhRSGBor2CKJ07gMc6DU-mIRUz2LRQ","scope":"GOOGLE","types":["restaurant","food","point_of_interest","establishment"],"vicinity":"4115 Columbia Road #1, Augusta","heroId":33},{"geometry":{"location":{"lat":33.5127026,"lng":-82.0513845},"viewport":{"northeast":{"lat":33.51350945000001,"lng":-82.05122070000002},"southwest":{"lat":33.51243365,"lng":-82.0514391}}},"icon":"https://maps.gstatic.com/mapfiles/place_api/icons/restaurant-71.png","id":"113cb4673db2972f68482b47f9f43ad9019ee26a","name":"Mi Rancho Mexican Restaurant","opening_hours":{"open_now":false,"weekday_text":[]},"photos":[{"height":2322,"html_attributions":["<a href=\"https://maps.google.com/maps/contrib/110977828458353852961/photos\">Mike Gal</a>"],"photo_reference":"CoQBdwAAAJpyZNMVWRRKAKuDaiG58N7L2HCkmaPzoBnD6AKkgpbu5isLvjPufkQQJEAFvDf3P1k100xgAupepdGcF82-T2fqCuVRxXUTcUfXhV2b7biRHylKGeiDmg19r7mVx1ssbR1vdHHleYT5cuP9EuAcdJWPJg-mSMm_V55stEd4egg0EhBGNM3Dzh-aDtH2f3Ho17MTGhTx5C92KUii-EkYa1l13VvZsNFcdQ","width":4128}],"place_id":"ChIJ6TdeCJrS-YgR121svYLT-O8","rating":2.6,"reference":"CnRwAAAA6Xb3Dll_42xJTGVQZY6bPJXdswycdroeuT11ke4rXvxNaTjnDvWmO3uvk2a57dXbj_7OpkfKrsBTK8WCZ8p-p_T4YQD7-XnTG2r_S6M3E2-HjUXEaQEo-iwUGhhZQrxGNLPsBRd44oIFXAQJvZNORxIQIeypgj7Ww8FkkrpGTV-tjhoUUNy4I9u6VpDjlA83AjWehIxbFZA","scope":"GOOGLE","types":["restaurant","food","point_of_interest","establishment"],"vicinity":"3064 Washington Road, Augusta","heroId":34},{"geometry":{"location":{"lat":33.5205238,"lng":-81.7248316},"viewport":{"northeast":{"lat":33.52066874999999,"lng":-81.72476155000001},"southwest":{"lat":33.52008895000001,"lng":-81.72485495}}},"icon":"https://maps.gstatic.com/mapfiles/place_api/icons/restaurant-71.png","id":"2edc6d8ef17c516caf479542f0c3fc531725d399","name":"Travinia Italian Kitchen & Wine Bar Aiken","opening_hours":{"open_now":false,"weekday_text":[]},"photos":[{"height":1356,"html_attributions":["<a href=\"https://maps.google.com/maps/contrib/109794237695340273099/photos\">Travinia Italian Kitchen &amp; Wine Bar Aiken</a>"],"photo_reference":"CoQBcwAAAO5eeyr3QcegER35ns39yGOB6Vt1_MrLz9Jpvq-FIqG3o3Mp5ICQZ3nswxdu6etiywrXr1dR4TvKRRXPTEWRE6flKDUDLEYnRFGGn2e4GzF4lir65WhaOpZg5vRc0srF36jaUp0RmJrz0VUOvGZqaEW0M4pIXfS8CrCnMMiY5uh3EhDC8XmV4kdgIz6gaVOLawhCGhSdaebSykgWcXoQgGRoCQWzlFGAaQ","width":2048}],"place_id":"ChIJ_5jqpzJN-IgRj1_wvLq4ENU","price_level":2,"rating":3.3,"reference":"CoQBfQAAAPyrWgX-5R82GCrti8hEXjYl8EVKHLT5g9z5jus23c_9n-aPAJsOmQCLT_sR_LVPfSjZPMBYrlnpYwFmBdwA0Izqpj3mRFkkdpTZmur_prPt47qrhKSsj93pe8sxDggUIqa66OGqaeJR6ZiRKGBnyvfK3SF-bvYFbU7v-XXemPpIEhAUv9ceuzIDV4HqFraDCORmGhRksTvqql46jJL2zh2wh2PRx8Vz5A","scope":"GOOGLE","types":["bar","restaurant","food","point_of_interest","establishment"],"vicinity":"470 Fabian Drive, Aiken","heroId":35},{"geometry":{"location":{"lat":33.47560899999999,"lng":-82.129637},"viewport":{"northeast":{"lat":33.4756834,"lng":-82.12876535},"southwest":{"lat":33.47558419999999,"lng":-82.12992755}}},"icon":"https://maps.gstatic.com/mapfiles/place_api/icons/restaurant-71.png","id":"6f3b8bd3dca9faf344ff9cd3ca0d6475628b1460","name":"Big Daddy’s Bar & Grill","opening_hours":{"open_now":false,"weekday_text":[]},"photos":[{"height":540,"html_attributions":["<a href=\"https://maps.google.com/maps/contrib/112873298059753008273/photos\">Big Daddy’s Bar &amp; Grill</a>"],"photo_reference":"CoQBcwAAAFI3hfjdeIMB_OSa45UAQY2yQrNavrjNjoqKyIYMPiY3o-RCL7AzFNKaEbHbczmjYRwTEegrSeO0-0aLmItFDzubfcLy3gXhLKVDKfgPCKc3dR9Wi2iFX3VWM9T-9aHu_KULb6mPPRW8LnVRTYPWpYglfTwL393gx0s_GX2UXUDDEhDGkmYb4KrDXq1wpKb1WiZdGhRwrftSzvaHyGZNJEBZ_8TGkVlKiA","width":960}],"place_id":"ChIJtTWlRgrU-YgRcbftUJsKlDw","rating":4.2,"reference":"CnRsAAAAbkg1wh08escMXVvxDXtR9JI2xe7FR3PZ5L4FheheuReRF4nq4L3___8QquGQ4S3HkEpJ7JPJRAjtq9n7u3A0WKQZhruRvqixSE82xcOqaOFNDBKzIOLuqj5KB-uTjHMd1PreFvK6EBq2xFYSym4VsBIQXY8zkMvYK_hHwik_645MvRoUcdAfM7o5tNjzF4c-2ybR4Wx1pc8","scope":"GOOGLE","types":["bar","restaurant","food","point_of_interest","establishment"],"vicinity":"4045 Jimmie Dyess Parkway, Augusta","heroId":36},{"geometry":{"location":{"lat":33.464089,"lng":-82.079208}},"icon":"https://maps.gstatic.com/mapfiles/place_api/icons/restaurant-71.png","id":"cd459104c4325a782e9d140c17a52e09fa5d3d72","name":"Buca di Beppo - Augusta","opening_hours":{"open_now":false,"weekday_text":[]},"photos":[{"height":1000,"html_attributions":["<a href=\"https://maps.google.com/maps/contrib/111085131964069924254/photos\">Buca di Beppo - Augusta</a>"],"photo_reference":"CoQBcwAAAKwU3SAIkfUA8hoR7RtMm7IGoU3S-05JKwGxrCmjWfHk3GU9ry-ImInO6ff71jSzrqyDK93XvQaT6Ybt9ly2YTYVHEAoQ5vndgpRUrxjop6izh-p-UBIu66IE1cAX8O4VLBkAAfmV8_Y1Y3CPC7ibbit_9bPwgeYM1o3-aFOREqdEhBbRKjROEbTX5MhSUwkcUGuGhQwjV8feCi3rZstSgDR1XwzR0oXRw","width":1000}],"place_id":"ChIJgQd05C3S-YgRGYmqdtXVt8c","price_level":2,"rating":3.7,"reference":"CnRrAAAADaN11Zl_s9pZGJMB4s3hahD7m5vqi8LDH2GyYN0f3Z_Kv1H4FfuAkoZQXwHI3yueaTgLUoy9vLGYmQ1FcsEEnuPiW6mrdohdyPpjKdjlUKDLTZsoFTlOryLpRcarpf8sInxRi74Kiap6JzBXatnl2BIQM_qAepoM5KGXAaTD5EMo4BoUMrQfYsnysBNseLcabx1I711dqRs","scope":"GOOGLE","types":["meal_takeaway","restaurant","food","point_of_interest","establishment"],"vicinity":"3450 Wrightsboro Road Suite 2080, Augusta Mall, Augusta","heroId":37},{"geometry":{"location":{"lat":33.46550800000001,"lng":-81.962327},"viewport":{"northeast":{"lat":33.46603990000001,"lng":-81.96204994999998},"southwest":{"lat":33.4653307,"lng":-81.96241935}}},"icon":"https://maps.gstatic.com/mapfiles/place_api/icons/restaurant-71.png","id":"b0ebe190308936050c9d364eddf65cde7f7adc0f","name":"Popeyes® Louisiana Kitchen","photos":[{"height":1299,"html_attributions":["<a href=\"https://maps.google.com/maps/contrib/111659014417728480832/photos\">Popeyes® Louisiana Kitchen</a>"],"photo_reference":"CoQBcwAAAMBMBLcx3BTd7IlpEYG75wYAYCX5EALDtdkM_Kpmo0-c27t8iu6J8R3zcb0ifzzyTIqyx4pnMMdmS8s6d41LhCiunCYYGIqhAbVL837VdD7qvPZGRlYERXhxgQYT3g7zEK3SdC2hQ0LvnqUgJbI5rZiENBK-rzrUE1p4mPX02qSBEhBgZKrMXxC1romEZj-gxb0GGhRQ_ctqd4FV7C6M63kYUzNTgTCCmQ","width":1732}],"place_id":"ChIJO5J5pQ3M-YgR2WDD-SR5F_w","price_level":1,"rating":2.7,"reference":"CnRvAAAAsShOKpqaaaFm1iXR-svU2ZdgLj-xDc-oNLslQTmGef2fzqdjp16xQMXNYCRJ-W4-D4csOC4XicggJkDXBc1zeV3AaDcpM7YXSSZvwlbu13Mucpi7gvO29NiocV25En0hI1vNd_ba_kNBKraBBZZFbBIQkyjHXhFHCcm8hUZ8vTcv0BoU8qf0DIkOzn5aOetwCrY8RZuJKk4","scope":"GOOGLE","types":["restaurant","food","point_of_interest","establishment"],"vicinity":"450 Walton Way, Augusta","heroId":38},{"geometry":{"location":{"lat":33.5383668,"lng":-82.1306697},"viewport":{"northeast":{"lat":33.5388024,"lng":-82.13023049999998},"southwest":{"lat":33.5382216,"lng":-82.1308161}}},"icon":"https://maps.gstatic.com/mapfiles/place_api/icons/restaurant-71.png","id":"d7505ebdec3e7fee1b6ea56ddfe29f54b528955a","name":"Yotopia Frozen Yogurt","opening_hours":{"open_now":false,"weekday_text":[]},"place_id":"ChIJ8Qc6B6nU-YgRqmS9JrOw004","reference":"CnRoAAAAOAgZP7hGjfbFN7B4358weDC1WMCL91cQlsq8_4DeVTuvBnmrXNscrHyaBB9co1WjXPsDugkyEUqbzb8PL_kSzlI514yVWE7REQnqOqvSrKJqLAUE5eOzbMEGZLTnv6YtZXhYgOIlYc0rhXhDcsr0rRIQK87ZdOrQB1mfBP6G990JGxoUotibXkHvZKYIKl3Qcx96obwlmKY","scope":"GOOGLE","types":["restaurant","food","point_of_interest","establishment"],"vicinity":"4324 Washington Road, Evans","heroId":39},{"geometry":{"location":{"lat":33.5092721,"lng":-82.1017485},"viewport":{"northeast":{"lat":33.50944439999999,"lng":-82.10157195},"southwest":{"lat":33.5087552,"lng":-82.10180735}}},"icon":"https://maps.gstatic.com/mapfiles/place_api/icons/restaurant-71.png","id":"bd4f711b7d81bb886e1a0ad53173fd3b676bf3b1","name":"Mot's Pit Cooked Barbeque","opening_hours":{"open_now":false,"weekday_text":[]},"photos":[{"height":2952,"html_attributions":["<a href=\"https://maps.google.com/maps/contrib/111610043693185169875/photos\">emmett jackson</a>"],"photo_reference":"CoQBdwAAALisdCoIdW2jrXyzrzie3X7VN0naPBtK6yxcprAFToh0wX3a3gnCsvZq5j-2_ooFR8Lm8wICnBr7uDKZOjRkGQf-B9AK2f-toKMmi0uox6WzjNq1VICSSBDc-ytmXMXfHyY24DHXKTdfJ6lhuCM2Kn6NIHRYwm8W9q_gk4YctMXHEhAmHa-7WQyKSn_pPmNYipw6GhR4_EcF2wH7Qra1-80ylvtKmNDcRw","width":5248}],"place_id":"ChIJeY_Kxg3T-YgRdm60-ciAK_0","price_level":1,"rating":3.4,"reference":"CnRtAAAAHoUNyjr0i9DvkPQJCYNKyD0w-oQJ5i4OFwgCEHfiTVO7LCRfuwb7zZj3QgHKGbniL5celEpOqY18qrbq0c50AR-f-AgluB9_aiK1E9G7dC2azqZcyoBZZaEGrifOfXTs7NxkfJVE3G1ZUQMPVp-8zBIQ38KimwOPvBnL5qp7yA--PBoULNuo1gCgIhWJvPZjVrxlG9VFDCg","scope":"GOOGLE","types":["restaurant","food","point_of_interest","establishment"],"vicinity":"3963 Columbia Road, Augusta","heroId":40},{"geometry":{"location":{"lat":33.53972329999999,"lng":-82.1270959},"viewport":{"northeast":{"lat":33.5405969,"lng":-82.1266997},"southwest":{"lat":33.53943209999999,"lng":-82.12828449999999}}},"icon":"https://maps.gstatic.com/mapfiles/place_api/icons/restaurant-71.png","id":"2dd49efccb89416dca1a37e8d0453d1bbb97d632","name":"Fuji Asian","opening_hours":{"open_now":false,"weekday_text":[]},"place_id":"ChIJVU1pEFbT-YgR7fVBE11j61c","rating":4.4,"reference":"CmRdAAAAJP0NoucD0Us4mr4C5IaWhhI9pdW7ayVjMIz6ne3ymXfqZ7W37osyQ1FF72Btbb5N2dlIJ6Ksjc3Ad_kv8nuRwtieGZ5yp9BV-WXCzzdYZcE5rZxVxHfT_g5k4Sqw4Y2REhCrVUSm2ndXxLsu4JgNNmA-GhSBq_MXWIt0HSxX5o-ufgvmfSnJKw","scope":"GOOGLE","types":["restaurant","food","point_of_interest","establishment"],"vicinity":"4414 Evans to Locks Road, Evans","heroId":41},{"geometry":{"location":{"lat":33.5098851,"lng":-82.0303027},"viewport":{"northeast":{"lat":33.51047414999999,"lng":-82.0301869},"southwest":{"lat":33.50968875,"lng":-82.03034129999999}}},"icon":"https://maps.gstatic.com/mapfiles/place_api/icons/restaurant-71.png","id":"fc2cce6cf2c60821ecea1ae67e67d62775e1c1a8","name":"Curry Hut","opening_hours":{"open_now":false,"weekday_text":[]},"photos":[{"height":3264,"html_attributions":["<a href=\"https://maps.google.com/maps/contrib/108683769474857629626/photos\">rakhee rathore</a>"],"photo_reference":"CoQBcwAAANxpo7qnunSbTNwiNJ3mQH-TZt7Cb4WuFwGXl6A443G-flSfzL1xG-f_6wz0_QK1aAnR71NHRBJ2mZqQBkhnfCmiYQjNAWamfGi3ufO67jGCV1yIE6uU1_SDzqJQ8Vzze3qECQno4O4F6g0lBqRErmKABCnnjP73EZtpq1iySsIAEhAFHcw6maEk6ygQwc2h1fJZGhRs4TFaEWq_qYjkCAoO5SPC467vSg","width":2448}],"place_id":"ChIJdS6ihWXN-YgR3Ol4gDaqsV8","rating":4.6,"reference":"CmRcAAAA-3FRosgSaapesryAzxmyt5K5l9kfaTq2ey592L1fi52ZEfBbyMynJ2DTiBHhqpOrP4NGZb_woujOe7M1DKHnTdwqTG3mJXOkqWC3-3mlwYJkqO42urM2mND3zsUVjAbVEhAibGIjAgol63f1YKpRDhPjGhSvKFbE-nzH59JRK3Z_pusgRgPkMQ","scope":"GOOGLE","types":["restaurant","food","point_of_interest","establishment"],"vicinity":"2810 Washington Road, Augusta","heroId":42},{"geometry":{"location":{"lat":33.438903,"lng":-81.9064207},"viewport":{"northeast":{"lat":33.4391463,"lng":-81.9063361},"southwest":{"lat":33.43882189999999,"lng":-81.9064489}}},"icon":"https://maps.gstatic.com/mapfiles/place_api/icons/restaurant-71.png","id":"f461b8a9743c5faf5151fd08d26d0a363dc867a5","name":"Freeman's Bar-B-Que","opening_hours":{"open_now":false,"weekday_text":[]},"photos":[{"height":2160,"html_attributions":["<a href=\"https://maps.google.com/maps/contrib/103536026146611456011/photos\">C. Hepp</a>"],"photo_reference":"CoQBcwAAAHagKm5_-d8iuWkP4Uh0ekcRjaHzs-52GsDxFUZSM5mIpWOvdUguTgl7vBYS7N7_7jmLYoAwyaC5Ry1hU8Z_magnmGijMvFO41inPPt6HHrkaOFKp4SSOrPLqo6QKj6S8vOlTCIgs460_KB8yMtPvBSsNCMnBrbwrWB3_pndBK0LEhB5NKcWZIUejl0snw1D3VEeGhRdrxZ6PPw_qst81Nq_sCNfJEHLSw","width":3840}],"place_id":"ChIJJXsloIbJ-YgROhVo9EiYNEc","rating":4.5,"reference":"CnRmAAAAsAZVMuj09lKd2WtF0Y69Uo1KverKwQuRfZJvJXypcQ_0r7bREUFkbR0F2fiGwZec32QM8NEiaJTqdfaXN3Azq-VUYFW8QnIND9-gzcFM3bE8wEMe6lOgppiJup6gdPp7W2RNE-PrtJ5pDZw3YsdAvBIQNJPAq6_INs7cBGxL-4stDRoUeDT7G0M6iQMBpxDAr6Ym1OJxjxU","scope":"GOOGLE","types":["restaurant","food","point_of_interest","establishment"],"vicinity":"1060 Sand Bar Ferry Road, Beech Island","heroId":43},{"geometry":{"location":{"lat":33.51127359999999,"lng":-82.031966},"viewport":{"northeast":{"lat":33.51164169999998,"lng":-82.03189289999999},"southwest":{"lat":33.5101693,"lng":-82.0321853}}},"icon":"https://maps.gstatic.com/mapfiles/place_api/icons/restaurant-71.png","id":"cf415b3f36cc43ba2de12ef5162a8c8820c9110b","name":"DiChickO's Organic Peri-Peri Cafe","opening_hours":{"open_now":false,"weekday_text":[]},"photos":[{"height":628,"html_attributions":["<a href=\"https://maps.google.com/maps/contrib/103982687157439989056/photos\">DiChickO&#39;s Organic Peri-Peri Cafe</a>"],"photo_reference":"CoQBcwAAALAbL9oUA7En1KcpVYHndGkj00RKIP6hPjnnF3BErIKjZHp9L0zsYAJBTbrG_Uxlrfy__OdvNGiGRDu57xAH42_K5yWbAmqlYRog7NZ4pEp8rIpUSpWzued4uh41KKMK2qLchOAL4bTFpkn0rIHzqgUH_ooo38l8DxZCZ8SUB4dEEhA7WdjRnRJbfFt5BfQtKUU9GhQ5xIKZuT7UqeLVQxn68ne4rrVI-w","width":817}],"place_id":"ChIJuTwYMmTN-YgRdXdJCUNtVsc","rating":4.9,"reference":"CoQBdQAAAGMhIpGhqsJAP9IL8S74sn1yj6cky-m7u7PRl4zRUJ7Ixe9llSCgKi38fZaWo8ggwm6Q1jtO_dko8Ykm8W67gZYMn7-_lYhBfzjQ4iAlx0fWJPI_4hD2xjBuyVk3cOYOooZJ7yS2b8UgWsr0iVQxlc8iuU1y--9IW0j-GcqgPqW1EhAWOSdxHhDf7jZJlrpGpbpxGhTMDyZPsSI6lFHSrEpYHnpwb_gXAg","scope":"GOOGLE","types":["meal_takeaway","restaurant","food","point_of_interest","establishment"],"vicinity":"2825 Washington Road, Augusta","heroId":44},{"geometry":{"location":{"lat":33.55020509999999,"lng":-82.0031722},"viewport":{"northeast":{"lat":33.55036049999999,"lng":-82.00298339999999},"southwest":{"lat":33.54973890000002,"lng":-82.00373860000002}}},"icon":"https://maps.gstatic.com/mapfiles/place_api/icons/restaurant-71.png","id":"a6ea249d0148cf0afd541ab7ba8488c5a7a51865","name":"Vinny's Pizzeria Bar & Grill","opening_hours":{"open_now":false,"weekday_text":[]},"photos":[{"height":417,"html_attributions":["<a href=\"https://maps.google.com/maps/contrib/102692915132194985155/photos\">Vinny&#39;s Pizzeria Bar &amp; Grill</a>"],"photo_reference":"CoQBcwAAAMcE9dEoDyH_obRkQ59X36MQbAUUtpLFVLFxnZwhrbQZ9Ir_v5A9YYht5A-6J75KoUwA5jP5_jEqvRuD0ClnLhDUdFN_QDZL4AdNzRVHXRm12SAXLdPvBJKHSirjiiUlZ9TxrcdHmzipiZijx0c_Yt1mP4e4cqDb38sq9eAroDlMEhBVJxlrYQgzdTlbMvxgC9mNGhRdSRmoq-PGBBAUGAdneIqxm2u04w","width":558}],"place_id":"ChIJ36m6bNoy-IgRyXTpDEipz64","price_level":2,"rating":3.9,"reference":"CnRwAAAA-olZCLT2kEFOAuZv2Ih5QSOkq1Pz4B-fnk3E4JI7t0C-uTM2sSS0d4vLijtv9ZTWj1FivvclmV2aaE-nBn1CmjCYMhCuzfORzbe6jCKN4jRIt84-Eb9abVp66-NoajOcv12IRkasVXEFHbVygFn7cBIQwV0T-9qWVV5UZUkCAWNjABoUyrL_VCwehLp29HI-BMh_gaY4bxE","scope":"GOOGLE","types":["restaurant","food","point_of_interest","establishment"],"vicinity":"1359 West Martintown Road, North Augusta","heroId":45},{"geometry":{"location":{"lat":33.51136630000001,"lng":-82.03202569999999},"viewport":{"northeast":{"lat":33.51177550000001,"lng":-82.03194439999999},"southwest":{"lat":33.5101387,"lng":-82.03226960000002}}},"icon":"https://maps.gstatic.com/mapfiles/place_api/icons/shopping-71.png","id":"b51fc5226af13a9f44e9be56fff9c3807661e433","name":"New Life Natural Foods","opening_hours":{"open_now":false,"weekday_text":[]},"photos":[{"height":716,"html_attributions":["<a href=\"https://maps.google.com/maps/contrib/110168721291509012127/photos\">New Life Natural Foods</a>"],"photo_reference":"CoQBcwAAAA647Jxf1mv4KvuUq3DOVeMd5GhuoCWFiwAZmdYyhhjaMHo7JVhEDwrf0FjDxOhgwSGb7HrOFH8qwtZRg4FlEdDO9KITcIKcUHSEJIKzI3IF-o5fM1MzP1c8TmzPH85xAtSmSQzs-oGKahT1gvTDgloK-bs3tkpBCgG5MPdxj4phEhABOaV8rSht2nUEPqRFjlChGhT3aV6kw4JOWr0Y4wCs4_Hau8wBvA","width":960}],"place_id":"ChIJuTwYMmTN-YgR1F4yc8E2I8k","rating":4.4,"reference":"CnRqAAAAHQHl3GFbHYk0shQOooiiCiUqMQsvhwmbOfrdFiB58pkntlYX6hhcbGIX4PABeRI2XX4z1NEUB3nEtNinELAgk0hg13aouWbDDQfUD5UaKwQe5hrynTyKdh5SIkXA2xqyuwiXTdVlqfCQXFnSOTh0pBIQ_ICyAetKlhajRzMgPfzQohoUXIXL89bxhgTS5w_-mz0m0bXOMp0","scope":"GOOGLE","types":["health","restaurant","food","store","point_of_interest","establishment"],"vicinity":"2825 Washington Road, Augusta","heroId":46},{"geometry":{"location":{"lat":33.562914,"lng":-81.763639},"viewport":{"northeast":{"lat":33.56430465,"lng":-81.76356835000001},"southwest":{"lat":33.56245045,"lng":-81.76385094999999}}},"icon":"https://maps.gstatic.com/mapfiles/place_api/icons/restaurant-71.png","id":"c019a8e3ecd18d916bac4a9522410d8333b2d4b4","name":"Ni Hao Chinese Buffet","opening_hours":{"open_now":false,"weekday_text":[]},"place_id":"ChIJ72Kt8YhM-IgR73v9gYXt9Es","price_level":2,"rating":3.1,"reference":"CnRoAAAAdww7KJ6K-W3Xtgv-fr1M9qUasadd87j293uEza4Q_bbt9tFpQSTnT5Z-hIGmGjUfv2rqF7VIRP25LRAFcKbgiWd0FLqG2H_1jhq5Utk7V9OlxIVwP27mZ0mhwidPF3tUYd6IFideMI7_NbajchET9BIQNFNEV2M8bj9OxybRWeh12BoULO7jZhXStCQ1SsS6NyHhFugQy3w","scope":"GOOGLE","types":["restaurant","food","point_of_interest","establishment"],"vicinity":"3553 Richland Avenue West, Aiken","heroId":47},{"geometry":{"location":{"lat":33.47827400000001,"lng":-81.972719},"viewport":{"northeast":{"lat":33.47845230000001,"lng":-81.97263550000001},"southwest":{"lat":33.47773909999999,"lng":-81.9729695}}},"icon":"https://maps.gstatic.com/mapfiles/place_api/icons/restaurant-71.png","id":"0b22fd6fcce542c682e06a8fc2d1ff05dba01d2e","name":"Sunshine Bakery","opening_hours":{"open_now":false,"weekday_text":[]},"place_id":"ChIJ_aeuV2jM-YgRicshoHn6Y6c","rating":4.1,"reference":"CnRjAAAAG5zwIN6_kY8bwhMu7OOUOSAhqdkukj4sHSvTXzjbHChc_SPtl8uuJC8BeA0t_65XnnAzpFfEK1160Tp4UkzwEcC_xv9kzkWuZSDwV_75ADpPFrNZp1OAQdhjnDpWXD9JB--pUkWoKbMsmR4azqJm5BIQIS8vH311MqA_d2BX-eaYaBoUa9WtI932PvUcO9WlCXK1XxLCMPI","scope":"GOOGLE","types":["bakery","food","store","point_of_interest","establishment"],"vicinity":"1209 Broad Street, Augusta","heroId":48},{"geometry":{"location":{"lat":33.51136630000001,"lng":-82.03202569999999},"viewport":{"northeast":{"lat":33.51177550000001,"lng":-82.03194439999999},"southwest":{"lat":33.5101387,"lng":-82.03226960000002}}},"icon":"https://maps.gstatic.com/mapfiles/place_api/icons/shopping-71.png","id":"b51fc5226af13a9f44e9be56fff9c3807661e433","name":"New Life Natural Foods","opening_hours":{"open_now":false,"weekday_text":[]},"photos":[{"height":716,"html_attributions":["<a href=\"https://maps.google.com/maps/contrib/110168721291509012127/photos\">New Life Natural Foods</a>"],"photo_reference":"CoQBcwAAAIWg77O1_tP0sf5fFVCH4kyl3ATtwQpB3mLzP-4TvmyBzobIixgW3U8yXH8pUNMLbEOijVm5st_W9qRYAj0znQmm9g5O5Pxlu4wXWoxlBBz0Drez76r10-h6jl_wkHksF0xZesWqXQ_fMnr-V1avULAddRzdPY6P9T09pjGLEmcVEhBDTRzHOdIRU9gD9Cy35HXtGhThwXGM4dNXuH3eg-t4Z9JI84YWzw","width":960}],"place_id":"ChIJuTwYMmTN-YgR1F4yc8E2I8k","rating":4.4,"reference":"CnRqAAAAl_byhIFUhDn0cVODmalQARMTgMueq9h6pkC88Zfc9nLb05SYExxIfMSwZE-H9MBeLs5HmjNPLly1wjH0Pd2wIdzfgE0cfsa4jrMJyWfrj4hlRULPuGIY4YcvlgBdSM4GCHgNnMlhYW69Ucq-HUwLGRIQNoOqENEh3Inbge2j0ymtYxoU4yNcoizEYyKeIZpxC6FwxoBTSJ8","scope":"GOOGLE","types":["health","restaurant","food","store","point_of_interest","establishment"],"vicinity":"2825 Washington Road, Augusta","heroId":49},{"geometry":{"location":{"lat":33.3836154,"lng":-82.14346650000002}},"icon":"https://maps.gstatic.com/mapfiles/place_api/icons/golf-71.png","id":"50c3869368540d2484d280b3836d75d3d9536514","name":"Gordon Lakes Golf Course","opening_hours":{"open_now":false,"weekday_text":[]},"photos":[{"height":681,"html_attributions":["<a href=\"https://maps.google.com/maps/contrib/105259716818083787285/photos\">lisa travis</a>"],"photo_reference":"CoQBcwAAAMmgx-pFHv35HB6mxPvroVd_yqtdq9f8Goz2KlbFa2IyJUobDFGnVuZU2PvZzs1q8DeqyALjdrQpyGgzD8oqQeoASfDzATAv5rw32BX7l9Kz63bIxMQP3ArgHDbitPcyotkusB8E7THUg94SnBni07Tak6EHhxTbdbhjzxG-6R3lEhDKvtP98t0uT6og4I8_1gx4GhTv1W59ZojS-72ZYrcnqWGbLIQdxw","width":1024}],"place_id":"ChIJ-zhefkTX-YgRtq4Ya9-g6t0","rating":4.6,"reference":"CnRsAAAAfrBvnVBYMAAwVqBKLMLsKBhNgJ24RpR7mvnSGEt1XSGWqQqANSyRCBMUNOIUdKcoVwVYQFeWbLWwid6Lj72HoY6-xgeBqPlo6Voz7KVdremulnEoX-AlNIVvwXNb9Xrv4KXC9NWlMn6bxT6ax00zFRIQb6CRG2Lo3ypJ14RYhpiGLhoUe96ok9mQNMfpZ_NH_3BO33ghJuQ","scope":"GOOGLE","types":["point_of_interest","establishment"],"vicinity":"537 Range Road, Fort Gordon","heroId":50},{"geometry":{"location":{"lat":33.674876,"lng":-81.96365899999999},"viewport":{"northeast":{"lat":33.67514985,"lng":-81.9636072},"southwest":{"lat":33.67405445,"lng":-81.9638144}}},"icon":"https://maps.gstatic.com/mapfiles/place_api/icons/golf-71.png","id":"f850e06d3fea87dc21b4d9898689e630b573c5ea","name":"Mt Vintage Plantation Golf Club","opening_hours":{"open_now":false,"weekday_text":[]},"photos":[{"height":450,"html_attributions":["<a href=\"https://maps.google.com/maps/contrib/108087415233439079556/photos\">Mt Vintage Plantation Golf Club</a>"],"photo_reference":"CoQBcwAAADrsVl2DJJIX1wqo-Tui7NK-OhYyNih00ALG7H2i9YiVz9gyyWt3Y4Jkrd2ccuSwkzicYfOR-oQrX4tRSQkIxoDxdhKjdgskzOAm8Si56c4HyBJWZnsba7nv55qwFU8qvPgvKu25Nddc2wFdZGMnAjm6a6RVFxeFSq2I6JrtwEtiEhBI0Bfs-xYb4qoWxvbyPL1SGhRC093CnX4BSE0eS7egG2-8VMuNGw","width":451}],"place_id":"ChIJDyD2e9Aw-IgRTcsigqlsESw","reference":"CoQBcgAAAO253Zm1KErkW2UyWqo8lqb3RLwJ9WZDcHMNx2OKHFeUB-AhsUKH5v5CfKw_ZtlfZ3FFTOucvnWH6augt4zAdFVVISIn5lRKUwXW7ib58avMqfYb8ITd-v-3yJcQ2PRbC3mChLPF4TEL1vcgInIU2w2C7lxA8n5wW0shpAN_QsTeEhBNxnUjtR1YsLp9PQlhhSoFGhRcww9s5UZCBCM8Rn9h-k7lfPZWpw","scope":"GOOGLE","types":["point_of_interest","establishment"],"vicinity":"375 Mount Vintage Plantation Drive, North Augusta","heroId":51},{"geometry":{"location":{"lat":33.48408999999999,"lng":-81.96264699999999}},"icon":"https://maps.gstatic.com/mapfiles/place_api/icons/golf-71.png","id":"a218f3f6fd728a780b679be546013b411ff6f5ae","name":"The River Golf Club","photos":[{"height":683,"html_attributions":["<a href=\"https://maps.google.com/maps/contrib/107742698518793149331/photos\">The River Golf Club</a>"],"photo_reference":"CoQBcwAAAKuU0sDvuxWKyDX1IVhRQftcoDbIEX4YLslIPEyh9RRKuuvjpN9usCc6VPEUx0BgMsri7zKroU-g_c_aMZ6LgmIo6abDbih7Hxp_fYADIzJPCsCz-3f1hs-kiTRjjdmnwEixxd0oV6_bmSi9W8v0QQotcVRbbgW4DxKgMxIX7emPEhAV--P441SL_MgVxnrLb3OYGhRuUrz1FIPFBuWG2C0p2QQPWW3PEg","width":1024}],"place_id":"ChIJuVNUiYfL-YgR_Z9DHBBTWx0","rating":4.3,"reference":"CnRmAAAAd39DKH026Q6YChzYLk5zAGNiyPl3WWD7OVyqShkk-uGhcDEsCFsgMZ_3PPRidM71FRnzP1Jo1FBEYA8IKJglU1c_QqIcl58zjpsgmQl99I9Pk-q5TK2AGTCq1qJdW2CbEs6R6e8RSfYbxTLHoyDL8BIQGFdFWEU_IRhQeYXQ091wWBoUIfQpjUmlNv5ELtHKqEeyaQ6R5sI","scope":"GOOGLE","types":["point_of_interest","establishment"],"vicinity":"307 Riverside Boulevard, North Augusta","heroId":52},{"geometry":{"location":{"lat":33.195757,"lng":-82.07476}},"icon":"https://maps.gstatic.com/mapfiles/place_api/icons/golf-71.png","id":"f218ee990fee5e94ed93c4786d9acc2ed8356f1e","name":"Applewood Golf Course","opening_hours":{"open_now":false,"weekday_text":[]},"place_id":"ChIJORtE6Hbd-YgRBHeHU-3Jrn8","reference":"CnRoAAAAcrnshQKVzmMVjvVLpl5RoCpuNNQmrm__FGnUsP6fotOt3fcS2P5J7TeRT7en-Z0jibpKlLkHLnzjw6LYTN0dLgqpSBcQZph1ZjSnaCE93ZyHh0wcKxvkbjDRu7t00W_vUCeMcYTB3JKeKrN23XjMXBIQAeju8PXPWlkYRD2Sdtqq2hoU4CjMMln08wloM601keWSZDHfUKs","scope":"GOOGLE","types":["point_of_interest","establishment"],"vicinity":"6130 Story Mill Road, Keysville","heroId":53},{"geometry":{"location":{"lat":33.4725327,"lng":-82.04808849999999},"viewport":{"northeast":{"lat":33.47333415000001,"lng":-82.04597724999999},"southwest":{"lat":33.47226554999999,"lng":-82.04879225}}},"icon":"https://maps.gstatic.com/mapfiles/place_api/icons/generic_business-71.png","id":"7197f0732567ae479d921d5c9db56a3bc68f2e23","name":"Forest Hills Golf Course","opening_hours":{"open_now":false,"weekday_text":[]},"photos":[{"height":421,"html_attributions":["<a href=\"https://maps.google.com/maps/contrib/112709570994857791851/photos\">Forest Hills Golf Course</a>"],"photo_reference":"CoQBcwAAANKyGVpS-UnRIIvdj_p2YfT9k0XBdKygGDHG8Ys9uWqe7h_A_lWDBkgtdsGNe5WSTutAEmh_UazqXP_AbwjEOTYs49l3m1S4USthQ5iBnZrLENfJZ5BmZSx6lSlCs3v8bURQjsn4mrzBPbsAaUf4jZ-EnI5jhVpNXceX5PBZ0a4rEhDr6oWzUuqO3gVTi5FX1eIGGhQND0rOIZJPHJfzAnrRMLHFJgBKMQ","width":422}],"place_id":"ChIJE1w4oQzS-YgR-L1zx8_6uxo","reference":"CnRrAAAAVIT4nbDCSV_eQfg5OP-cApHx_R3OkK9cz2nWwbQiXUKYGBllstHXQkR88gs4cDuqopLWK8C4MIaINAfT8sICiGlzM2sghzemXvXQmrcmfaALmdTRDiF_7_mNxOvKx_f8IC3mbtXx2HiXI0ca0vl5NxIQxzLBHxxOVIum4W0aDhuWbxoUn5pJZ1st-IG7c0Z5zU_qKFzmAb8","scope":"GOOGLE","types":["health","store","point_of_interest","establishment"],"vicinity":"1500 Comfort Road, Augusta","heroId":54},{"geometry":{"location":{"lat":33.5190706,"lng":-82.2149859},"viewport":{"northeast":{"lat":33.51920334999999,"lng":-82.21494065},"southwest":{"lat":33.51902635,"lng":-82.21512165}}},"icon":"https://maps.gstatic.com/mapfiles/place_api/icons/generic_business-71.png","id":"278abeb5a955cd296795507c8b0cf47786511f8e","name":"Bartram Trail Golf Club","opening_hours":{"open_now":false,"weekday_text":[]},"photos":[{"height":994,"html_attributions":["<a href=\"https://maps.google.com/maps/contrib/106528165689890559599/photos\">Bartram Trail Golf Club</a>"],"photo_reference":"CoQBcwAAAJ8fSrOkMZjMGHLmAOuG2iHjr8l5Ac0YdZyHnvLNG2A3hhsdVwbwpYul2hihQG5ywfppD_2jrVluC_F4ioNPeyoSjz-0WB_bB5JRC_BwY9wIL-ypM6WKRALvA9BTz8Hrc-neFS1cbUT7VLqmhGXPBFd6UGozDSNbk4cuB0YnFSmhEhAVnE8DtasK0GpJqpJ_vKktGhT8ZdbZQKNS16Hiu9iN2QLqVOurYg","width":994}],"place_id":"ChIJA7bfDdh_94gRvNehBh5idX0","reference":"CnRqAAAAreMOh1DzF75VI6dVzJMUmswv-QdI5mr_w2I0tA2rXZVrZ8l67PK-05rMZI2A_iKbT8dRYL5bY_v24HA8-LwTHYAFk87oBJWS-VdHtJD2fipEnNKB_FBiQISvo0iVfBYxt0XUmtrvBLHUsA9gKQ_kARIQ-QbsINJ2eDsvaiAv6yziMBoUZJNe6Pa_hirJX1dfeWP4tLmV1J4","scope":"GOOGLE","types":["point_of_interest","establishment"],"vicinity":"470 Bartram Trail Club Drive, Evans","heroId":55},{"geometry":{"location":{"lat":33.46793400000001,"lng":-82.04501429999999}},"icon":"https://maps.gstatic.com/mapfiles/place_api/icons/generic_business-71.png","id":"a7b6e7472380778201b5043994d8ab6f0fdeb193","name":"Patch of Augusta","place_id":"ChIJRbzkOffN-YgR45qqDWDxQbE","reference":"CnRkAAAAPR6NXFRYY3q7XSI6ObeLgmcd57oK_f3nk8CICca_4q0lY_jiKUzGXNZXA7f9pGZx8zyE_K0hT4tv5lojX3isfF6MTHKZFjgQWfzVVU6Wq11A6EI4BwvlRd8U4VqHmo2fcXkDPDUQkkm7meGg6bCxrBIQNkioU90MmAXFBtDGDC9QfhoUfa8ZkEjVEKaP9SMmHk6pnfCEK3c","scope":"GOOGLE","types":["point_of_interest","establishment"],"vicinity":"2023 Highland Avenue, Augusta","heroId":56},{"geometry":{"location":{"lat":33.8168848,"lng":-81.875047},"viewport":{"northeast":{"lat":33.81692425,"lng":-81.87491155},"southwest":{"lat":33.81676645,"lng":-81.87545335}}},"icon":"https://maps.gstatic.com/mapfiles/place_api/icons/generic_business-71.png","id":"47e7c3e398dfdd5bb934b4a91dbf33615b873b32","name":"Pine Ridge Country Club","place_id":"ChIJf8E4EV0_-IgRLR4og0MDxBc","reference":"CnRqAAAAXB0OUUuxqa3LznkVtqEI1aADO7w2vHpbLw8BL2H_7_x-zFGj2RhoiDHvB8NGLdovPdYZ8MYB3n04qUi16Qxn2c4l-iljdprDKE6P6RZNelqLAW_gNjOjjdZX6UI4G4S27hZH9bjgWN6vYvL0_t7ykhIQK9-nPhQpffDF5n2suqzU9BoUlT7qo_l5CXRWOW4pyWupeTIdXxc","scope":"GOOGLE","types":["point_of_interest","establishment"],"vicinity":"425 Pine Ridge Road, Edgefield","heroId":57},{"geometry":{"location":{"lat":33.47039950000001,"lng":-82.10330139999999},"viewport":{"northeast":{"lat":33.47051595000001,"lng":-82.103182},"southwest":{"lat":33.47005015,"lng":-82.10334119999999}}},"icon":"https://maps.gstatic.com/mapfiles/place_api/icons/school-71.png","id":"0aa4f938a64d7fb5beb9fe5c55d60660dbb788e5","name":"Wedges & Woods","opening_hours":{"open_now":false,"weekday_text":[]},"place_id":"ChIJ9UR8asHT-YgRNzcY1SteuJU","rating":4.8,"reference":"CnRiAAAAs-8EyIyaCOS02p4uOfXu0YY2hogWXhhnugHiL4bpH0ysjkzMyZzMzBCgaimfw-0USJBoEh40SoBBmudYdwzvZKijoSE1A3NHTd_hJXLvR2dwBDHvSgx-8aBR9kE0zfUlm2gZgBM3Onur50sckZYmlRIQ99jxTRCgKHT2NyCoUZkLNhoUCCvkCeL4Ii0a6X0qICEqEa7ab8o","scope":"GOOGLE","types":["health","point_of_interest","establishment"],"vicinity":"3731 Wrightsboro Road, Augusta","heroId":58},{"geometry":{"location":{"lat":33.450125,"lng":-81.656173},"viewport":{"northeast":{"lat":33.4509281,"lng":-81.65598254999999},"southwest":{"lat":33.44985729999999,"lng":-81.65674435}}},"icon":"https://maps.gstatic.com/mapfiles/place_api/icons/generic_business-71.png","id":"bdb78916111d878f0b57f5de6209293256307cbf","name":"Cedar Creek Golf Club","opening_hours":{"open_now":false,"weekday_text":[]},"photos":[{"height":455,"html_attributions":["<a href=\"https://maps.google.com/maps/contrib/110368653428263203465/photos\">Cedar Creek Golf Club</a>"],"photo_reference":"CoQBcwAAACogCRFBVo6B6etYXrV41Y4tMkM_3oAMSX9bUV6yE9iGsivGKgiDsyzLD0Z4uiZ2oGZv9PK9fS3WwhoiVmi1fgxaiIZPGikz2I0e2poUIeXycvE4WFy-5FPT76yO2W0vEWBPKmp_ArvSUaWYts-tJx5SzLgs1hq__iGF3IrRYmJNEhC8V9n3chsIhIIWHPLYjcHrGhQKEkLVWFynI7COin22fizv9utr7g","width":456}],"place_id":"ChIJMftjlLet-YgRbzIY4JNIM8s","reference":"CnRpAAAA2nJrHUcIjl_C_pn8wmeUMlp8TNOoylfPj5hXBn8S2brXeQ2spKVTpgKOGfk8DfR5uAmMDq6C2jAS8eLXd92-Y6ZigCf6_miLT5alGhXjtl0_57AzBQq_txEUK75RhUPMR34woIw09kzVpB-nHj6VwBIQizV4_DsC_nf32xANTf-4QBoU-aV8TF1TxMLT4HduJcx3_DTvgcc","scope":"GOOGLE","types":["point_of_interest","establishment"],"vicinity":"2475 Club Drive, Aiken","heroId":59},{"geometry":{"location":{"lat":33.41642149999999,"lng":-82.036627},"viewport":{"northeast":{"lat":33.417668,"lng":-82.0347688},"southwest":{"lat":33.41600599999999,"lng":-82.0422016}}},"icon":"https://maps.gstatic.com/mapfiles/place_api/icons/golf-71.png","id":"8f118819f2e6daca8318b19079c196622b119ad4","name":"Green Meadow Golf Course","opening_hours":{"open_now":false,"weekday_text":[]},"photos":[{"height":1536,"html_attributions":["<a href=\"https://maps.google.com/maps/contrib/107436018935127585369/photos\">BJ Hathaway</a>"],"photo_reference":"CoQBcwAAAKhKm6P3hFfWGcpJhpxM3qFCjrjRbn5tNbjaI23lSr_j22G9BT3F-6_FXhxqShXB6oyw4VGT7vsA56NRc5Z9Kqz07Scq684dHCJpl4NM28Sar6PoVwgMEnMz8GV0W7cVLznCmn8zIFlAdCOm5gAVX3fg-gUAQxKVJyqQBZ_MKAO8EhA1s8Rn_2Uv8hBVB6sTWkH0GhTPHkScbs-fLO6WIDeKQCJuRCV7pg","width":2048}],"place_id":"ChIJ1fBq4yjO-YgRkcjUN3lBBbo","reference":"CnRsAAAAep1QFiCtsZY-_NbuHYdnoWSIl-oDPD7LuAeT3SuiNxK7sGYl5aVYLwVQjdTJGS6tUlMB88uu41hqqIRMUweixDz9Y_fgrbYvZaTv7jpkx56t6imXkhRQSYu5vIn0JyjafGgW431flBD61BCs2WqXUxIQCDOEHZ5Iz7fhmRMmEyFlEhoUVa75ayh2dT2i1-jpZ4yeabm8TsM","scope":"GOOGLE","types":["point_of_interest","establishment"],"vicinity":"2900 Green Meadows Drive, Augusta","heroId":60},{"geometry":{"location":{"lat":33.46793400000001,"lng":-82.04501429999999}},"icon":"https://maps.gstatic.com/mapfiles/place_api/icons/generic_business-71.png","id":"a7b6e7472380778201b5043994d8ab6f0fdeb193","name":"Patch of Augusta","place_id":"ChIJRbzkOffN-YgR45qqDWDxQbE","reference":"CnRkAAAAMisGzVMKgOoLyVfCoV8tEa0N7YuxCxLiB4pSEUI3XG9YboUpNB3Kdc0UZhDMoNfVHL-7lU9T5SVyUqQerNx0pWsAh5eQWiqFufbXy1PMWG9y9B40gthYrIu2zXEGNvw6eSbB-qwUFvv7zEoG3_NkLBIQgBMFwrHhg4saa88CUnMFzhoU37dMNUOIJxHlDt8eSfhOwfbH5A4","scope":"GOOGLE","types":["point_of_interest","establishment"],"vicinity":"2023 Highland Avenue, Augusta","heroId":61},{"geometry":{"location":{"lat":33.5162936,"lng":-82.0805615},"viewport":{"northeast":{"lat":33.51647890000001,"lng":-82.07994605},"southwest":{"lat":33.51573769999999,"lng":-82.08076665}}},"icon":"https://maps.gstatic.com/mapfiles/place_api/icons/generic_business-71.png","id":"6eb10efe592d5fd9a0fabccd040063ee6383f6c7","name":"Putt Putt Fun Center","opening_hours":{"open_now":false,"weekday_text":[]},"photos":[{"height":3024,"html_attributions":["<a href=\"https://maps.google.com/maps/contrib/107102060937039797925/photos\">Santhosh Alladi</a>"],"photo_reference":"CoQBdwAAAN0M4G7umHkFmV0gmj3AVZ-6CI8QNfatPeaGMmkGXZ1xwlk2EbSr7Cm3N4hmF2z4Ra6tKWo3uOtl4i_04QxeKOm5UydNuLGOUCwCu-mYKI4HhGatt-c0Fjkl-bbpgTQ6vqgsTipvsqLfHChVeemZ6VtWVNhdBYvO9apcj5ozd6p2EhBIWz95BK2l1FRSWDPO0sigGhT2Pejvg1X9W7bpqjQKuAVKptlTEg","width":4032}],"place_id":"ChIJOxYwaOHS-YgR1Ykf65ewaFc","rating":3.6,"reference":"CnRnAAAAc85FUx11bc5CE5aZ66pd1dff2zzlOsa9R8GXZrCJlRpP23Y0dENRL8IZNd-_wUajmfNx_gP-Y6GXkwGoPE8EVFLTf1xC1HqZiQba5ADtai_153Di5ri0TOzYbEfzCCxYHA5HNsuktGksMzdu_5QyBRIQPX3ywl_rOxmf9ionFmhYLBoU68OEfw-5oqImfS4z6pSqqMbq5mM","scope":"GOOGLE","types":["point_of_interest","establishment"],"vicinity":"3763 Martinez Boulevard, Martinez","heroId":62},{"geometry":{"location":{"lat":33.519278,"lng":-81.9118359},"viewport":{"northeast":{"lat":33.51951165000001,"lng":-81.91156120000001},"southwest":{"lat":33.51857704999999,"lng":-81.91266}}},"icon":"https://maps.gstatic.com/mapfiles/place_api/icons/generic_business-71.png","id":"8ee97faf68fff784c93f61cc2373c35862aaeb0d","name":"Days of Fun","place_id":"ChIJ67UPuifL-YgRCa8Jugjj56w","reference":"CmRfAAAAiS2pD7AbA4sTb11Q9wu7bV5RD8JpLJNVKIEpvVhBBzB0rJ-qN-MPOAqMGhQBIYelMwMO9iMgKStetAmOnXOigvQRBrIBV9-VxZook0SHvQl50TasCMgPD5_CbwUCNG7dEhB2xBgLlxEjOIqlH5sutO3QGhRGS-iWf1QBYfwhC8sFhix-OSjqtQ","scope":"GOOGLE","types":["food","point_of_interest","establishment"],"vicinity":"1390 Corley Drive, North Augusta","heroId":63},{"geometry":{"location":{"lat":33.5162936,"lng":-82.0805615},"viewport":{"northeast":{"lat":33.51647890000001,"lng":-82.07994605},"southwest":{"lat":33.51573769999999,"lng":-82.08076665}}},"icon":"https://maps.gstatic.com/mapfiles/place_api/icons/generic_business-71.png","id":"6eb10efe592d5fd9a0fabccd040063ee6383f6c7","name":"Putt Putt Fun Center","opening_hours":{"open_now":false,"weekday_text":[]},"photos":[{"height":3024,"html_attributions":["<a href=\"https://maps.google.com/maps/contrib/107102060937039797925/photos\">Santhosh Alladi</a>"],"photo_reference":"CoQBdwAAACrqFfyAkLLchGWGbgAnTpYDUbEyNIEvNt2W4m1gXcV8lxT2m5Dim3OVVWFcbTHlF7AkvG5Q4JVPCf0smMGJRq75mBcxsb9O24Egoz1XmMm3Zk8VTBG03hNWSlOWO2MroSigskFAUvrRo8kQOPite5YJNxVwF7tuf-LLABd7pNyeEhAgU4GlYXrXlCao_D_Bnv8kGhQDxSa0Vvtb9P54NDsU6bpaG2sj2A","width":4032}],"place_id":"ChIJOxYwaOHS-YgR1Ykf65ewaFc","rating":3.6,"reference":"CnRnAAAAUa_Eotolb0TNS_ZGZNS6yQXcHh0cJO6id0I9DhnWnBx21R4N7ADJ90XYrc_6PZ1Fm-p19XgJ9FFZSMAwFe2CByS7-F2DAyR40s5Wn856jWFuZ5jThgLhrO7cbo688i4TdjgWL-PQA678LCzm1whtBhIQr6CTf4DRMV4O_foqDTlAeRoUbNUEwHd8VfI1fuQy3tg0fc3TP9I","scope":"GOOGLE","types":["point_of_interest","establishment"],"vicinity":"3763 Martinez Boulevard, Martinez","heroId":64},{"geometry":{"location":{"lat":33.47039950000001,"lng":-82.10330139999999},"viewport":{"northeast":{"lat":33.47051595000001,"lng":-82.103182},"southwest":{"lat":33.47005015,"lng":-82.10334119999999}}},"icon":"https://maps.gstatic.com/mapfiles/place_api/icons/school-71.png","id":"0aa4f938a64d7fb5beb9fe5c55d60660dbb788e5","name":"Wedges & Woods","opening_hours":{"open_now":false,"weekday_text":[]},"place_id":"ChIJ9UR8asHT-YgRNzcY1SteuJU","rating":4.8,"reference":"CnRiAAAA233TwRjE7bPRfzWoUkH7Mtvq03lXnv2EoutWnHs99oLGBzCq69N_F96wwTNUlTtr2WVx7rMLyZbyWRyI4iXyZKtVvNeuxvE33y6Jfado7oEzqwapqwqGDLJ9iMGtJi1ii_wZ8pwX5niqu8rz7V04lhIQaBTTH1jIRsr52mErWVy2fBoUeFGbqeWoSXJAnF0V3OS0yii8W84","scope":"GOOGLE","types":["health","point_of_interest","establishment"],"vicinity":"3731 Wrightsboro Road, Augusta","heroId":65},{"geometry":{"location":{"lat":33.5383668,"lng":-82.1306697},"viewport":{"northeast":{"lat":33.5388024,"lng":-82.13023049999998},"southwest":{"lat":33.5382216,"lng":-82.1308161}}},"icon":"https://maps.gstatic.com/mapfiles/place_api/icons/restaurant-71.png","id":"d7505ebdec3e7fee1b6ea56ddfe29f54b528955a","name":"Yotopia Frozen Yogurt","opening_hours":{"open_now":false,"weekday_text":[]},"place_id":"ChIJ8Qc6B6nU-YgRqmS9JrOw004","reference":"CnRoAAAAy53cF6mrxmeK63S9t5y_kRkKEHdxdyZSUObnSpmkDFcyOOJB9g8kdITy9gnXD21oKDSyzKxrwLlycnct_6gqnWZXSPmNSA7wUlUNIevn6E8GzhKAeiB6tDSnlw4cgbLQzhJIaeNzvvdpH8YJqXqCixIQXJdBu7ab8TOzumaDFdTSthoUEsExc7UwKtBI_Wa6IhDi-3clPJo","scope":"GOOGLE","types":["restaurant","food","point_of_interest","establishment"],"vicinity":"4324 Washington Road, Evans","heroId":66},{"geometry":{"location":{"lat":33.4780862,"lng":-81.9661852},"viewport":{"northeast":{"lat":33.4781729,"lng":-81.9660959},"southwest":{"lat":33.4780573,"lng":-81.96645309999998}}},"icon":"https://maps.gstatic.com/mapfiles/place_api/icons/restaurant-71.png","id":"f5d56ee60ba739e6d85af85ca70e46babe915752","name":"The Boll Weevil Cafe and Sweetery","opening_hours":{"open_now":false,"weekday_text":[]},"photos":[{"height":349,"html_attributions":["<a href=\"https://maps.google.com/maps/contrib/102168892558548308513/photos\">The Boll Weevil Cafe and Sweetery</a>"],"photo_reference":"CoQBcwAAALor4s0in7dcfx1KNivAJ4Q_OtXLuIlFS7rFSWkEK7flm2dePN8wadQnJubJkGyQ1QhkAn9l1mD3W-XK0DWMKnlGmJ7cp3iwbAmH5Hl8GlczwHJR5xgacclE1O9_h9Lmtyf2oNb8u6G-rfDkUcFJNhqDYfda6JOcsHJpIIANjP71EhDM3jxbOVXRe-AaaYDMbJSnGhQXvLsb8fDwi9-D1mi3SwVzgOfrbg","width":349}],"place_id":"ChIJNWDTu2_M-YgRbPnJD12Q7vc","rating":3.8,"reference":"CoQBdQAAAEPL1kUW8KsyBcKPyufOPbwqsvKYczwylzHpSQLTeiX6PYY6DrNsE3jGGyqfilASlgmq7YDvjInKIF5WVhhMBVLvC0BbsRXykn_65EnUkRB7qzRoazspLaWShuz1wxQJwIvop_o8zG-ytBiBpPN2XLIFeXFH_BgW20XXtdHzv5QHEhDatiTzrrjvI4zkpFHuiUViGhQ5IVi_mCRW7l5CP_snz-LP_cp5NA","scope":"GOOGLE","types":["bar","restaurant","food","point_of_interest","establishment"],"vicinity":"10 9th St, Augusta","heroId":67},{"geometry":{"location":{"lat":33.48358839999999,"lng":-81.99198559999999},"viewport":{"northeast":{"lat":33.48369085,"lng":-81.99188754999999},"southwest":{"lat":33.48355424999998,"lng":-81.99227975000002}}},"icon":"https://maps.gstatic.com/mapfiles/place_api/icons/shopping-71.png","id":"15f210998dab78153e7f452b733806247b20d98c","name":"Broadway Tackle","place_id":"ChIJuajAJlLM-YgRYz0t90QUbKQ","reference":"CnRjAAAAldOv7F1YjsTDbjj5PY2J3WpIHWwXn0ML5UkJn02GmIStU78FpnuD6gYQFMiKJUAzT31O9cD4gTsGcViAui7hc2mFCkIwXEe7VNNrmQjFPaibvsdsp-61zTHXVSXszRncv5HblgtMzRPKz3p2iTO0nxIQovdLtvab9tBa8bJ3dxwZJBoU9V7fJfg0VVCTzl1pNklhlTD5pvs","scope":"GOOGLE","types":["store","point_of_interest","establishment"],"vicinity":"1730 Broad Street, Augusta","heroId":68},{"geometry":{"location":{"lat":33.4802932,"lng":-81.9757293},"viewport":{"northeast":{"lat":33.4804228,"lng":-81.97566974999998},"southwest":{"lat":33.48025,"lng":-81.97574915000001}}},"icon":"https://maps.gstatic.com/mapfiles/place_api/icons/generic_business-71.png","id":"8ed845172d6b04fd9fbdc7c4b5eaa82f2be7d478","name":"KAMO Manufacturing Company","opening_hours":{"open_now":false,"weekday_text":[]},"place_id":"ChIJHWkdrELM-YgRSLout2q-uUo","reference":"CnRtAAAAi3dSiTnIWTtgMkd6SPs1D_UUZvRdfr-SWT7AXZEQWD3EDB_2EDabKZTPzFR8b7se3L4xKbveIuYEBwzmd3lXTXLJnfpL-0zsHylFZAEGD4lELnIHlbKdJXHDgsJBPx88az8iE_rXioJjQTSyLzdX5RIQcmPp4Zr3Ze1Wg-mgAtc6txoUOFQgQbBp-y55QQe3dNv8xay2Ml8","scope":"GOOGLE","types":["point_of_interest","establishment"],"vicinity":"1326 Reynolds Street, Augusta","heroId":70},{"geometry":{"location":{"lat":33.5152043,"lng":-82.0698613},"viewport":{"northeast":{"lat":33.51576854999999,"lng":-82.06972749999998},"southwest":{"lat":33.51498395000001,"lng":-82.0699059}}},"icon":"https://maps.gstatic.com/mapfiles/place_api/icons/shopping-71.png","id":"c62fd19c598e034953fa03094a11c9f253ce09e6","name":"Park Avenue Fabrics","opening_hours":{"open_now":false,"weekday_text":[]},"photos":[{"height":614,"html_attributions":["<a href=\"https://maps.google.com/maps/contrib/105331184999123635808/photos\">Park Avenue Fabrics</a>"],"photo_reference":"CoQBcwAAAIuJF0HlYifYsuPngg4lcqENmLz-7Sp3g9yrzVdSS1aduliQePNW2-Ml13-79m-etDhfsE5bBXQn4BW_WKOLdrbiry1Eqmd1blzx0fpdeSi5sBwIA4CxfyYLPif8PfA5oj01ZOZqMt0AO0_LP7_67KUzgPLM6k98vI7liq4AC22QEhCCYAV9_4A7zitphdZ_zpLSGhRKmj0wTIYbug0jxpielUcQgWYgHg","width":768}],"place_id":"ChIJZ7BVH-nS-YgRH6IAn4VE0A8","reference":"CnRmAAAALAoh2-ncmsZmhBI23GHuMwxouwoXlrd6IyzRPGSn-Zp0ffCmDmufV7jb74IF07J58RcPpLeS5xlWkr5cSjMbLpIpNqkgjiTLPDaNIO7krU6c5QX9rCYhy-Xp8iCdrnIVcIsYMnySWXaoqO7CwoGd7xIQgeI2x1hQYs0veZ4UBZbz8hoU3wIexTmogzfmAqjIELU0m-lGEC4","scope":"GOOGLE","types":["furniture_store","home_goods_store","store","point_of_interest","establishment"],"vicinity":"3328 Washington Road # A, Augusta","heroId":71},{"geometry":{"location":{"lat":33.521576,"lng":-82.085584},"viewport":{"northeast":{"lat":33.5218095,"lng":-82.08543055},"southwest":{"lat":33.5208755,"lng":-82.08604435}}},"icon":"https://maps.gstatic.com/mapfiles/place_api/icons/generic_business-71.png","id":"2c9bf1762aad6cfc3fbfc2dc86a2d3d36292a684","name":"Therapeutic Massage by K C","place_id":"ChIJdeK5GCDT-YgRR_9m4iJcz-0","reference":"CnRuAAAAWurJKkbdlh8mHXLEqfMSSBtcKZxME5pj0nbNZ2XbZMDxZO48EgnRK6O2H_aiezp449vpKljb-5J4QiWAKdq3btBked68v6hQE8N0ZlK9daOF9qIOOzof-XIfoZzN_lDz2KiKDB3-YqKGTf4v9ZqjdxIQDC-WnaQqwpU3ZvtO2ZEP8RoU--00g-iDLOiD6rrtBeS6HBl4pps","scope":"GOOGLE","types":["spa","point_of_interest","establishment"],"vicinity":"3685 Old Petersburg Road #105, Martinez","heroId":72},{"geometry":{"location":{"lat":33.51207499999999,"lng":-82.088098},"viewport":{"northeast":{"lat":33.51269615,"lng":-82.088018},"southwest":{"lat":33.51186794999998,"lng":-82.08833800000001}}},"icon":"https://maps.gstatic.com/mapfiles/place_api/icons/generic_business-71.png","id":"14b7d3e3d10f70a61a24ecfd262a8b11255ccda8","name":"Silverstein's Cleaners","place_id":"ChIJr4c57BzT-YgRJwxb3A0FncI","reference":"CnRqAAAAlGqr4yGGwWeHmerKuHKYxg4cdc7S659L5uW8gaV7IapIntuQCf7Ejct0Zk4xFNRLoFSZPvP_7CxrQb5Pra8IyQvhx1dFWIlkCfjNoaGcb13sb1zIx9enJpP6EkU4KctUrkV3-LGcthEejSPisoVrdxIQZurur_V0Ju8NG7i4OUTXsBoUcHq7K_vqODq1ShnLv770r9jexy0","scope":"GOOGLE","types":["laundry","point_of_interest","establishment"],"vicinity":"3818 Washington Road, Augusta","heroId":73},{"geometry":{"location":{"lat":33.477153,"lng":-82.086764},"viewport":{"northeast":{"lat":33.4771973,"lng":-82.0865688},"southwest":{"lat":33.47702009999999,"lng":-82.08734960000001}}},"icon":"https://maps.gstatic.com/mapfiles/place_api/icons/shopping-71.png","id":"b689f7087e033ef93957001d218a0ec232ef4f0a","name":"Bargain Hunters of Augusta","opening_hours":{"open_now":false,"weekday_text":[]},"place_id":"ChIJh7w_ebXT-YgR9kLght1nZCY","rating":4.7,"reference":"CnRtAAAAIbf8PIDcexgQG9_ckO4z9ID0v0ME0IhDSFZBuN921VscfNZrj4lKNIA41Zq35d35VCh56gmbZ8XvPYkSc4Jfk6qEx7CPxH7uhPoJd83bZqNBtd14WeG1uqu8N60HgCHC344DFDzon953De0ieaWWXhIQl4ulozbucbMdRXc6FfgzRhoU7_qY9faEPOzCPc6MOzQGFw0lXXQ","scope":"GOOGLE","types":["cafe","food","store","point_of_interest","establishment"],"vicinity":"1254 Augusta West Parkway, Augusta","heroId":75},{"geometry":{"location":{"lat":33.53153440000001,"lng":-82.0733985}},"icon":"https://maps.gstatic.com/mapfiles/place_api/icons/generic_business-71.png","id":"4f79966859a1e34a7c658f273556bd19c1e43d87","name":"All American Towing & Recovery","place_id":"ChIJTWxHtAnT-YgRLSiOBotS8kM","rating":4,"reference":"CoQBcQAAABHJqxIF75nlW4iobc3HzIrVez-ZlJImQ1gEgm7WAHgyE34kVuCubh5GGMbmCP_05NcF1zUlq_xsaegZ-YID6sB_gQ_ARDFmHxY2SPmrZP1dIz6phxONfMhOgNpx77PEHmHN8xi3zd6TVsLHEzg0QVceXYmTOBECzO_7q1kJEhaLEhAzDjuFTWUA8TjtVwCgY4t2GhRANUo7onIPytaoeuJkCRd27MMv1A","scope":"GOOGLE","types":["point_of_interest","establishment"],"vicinity":"Augusta","heroId":76},{"geometry":{"location":{"lat":33.48358839999999,"lng":-81.99198559999999},"viewport":{"northeast":{"lat":33.48369085,"lng":-81.99188754999999},"southwest":{"lat":33.48355424999998,"lng":-81.99227975000002}}},"icon":"https://maps.gstatic.com/mapfiles/place_api/icons/shopping-71.png","id":"15f210998dab78153e7f452b733806247b20d98c","name":"Broadway Tackle","place_id":"ChIJuajAJlLM-YgRYz0t90QUbKQ","reference":"CnRjAAAANww1hm470hQ8KZAMTFJXxJGeY38IgCKKkSl8iYjQhMhpL8Fk0DFN-0PppAtau-k5eNWrgiYRwZfnSFxxI6uNuCph7JFxrsavQuI-fQW7awdKp7IfoBan2IpQns8xsopYGD6sxueNo28OIKbpopkqcRIQqLh08flib9TURva0oBq8eBoUoN8R6bhmNUZ-9p6ti88ntU6SD6c","scope":"GOOGLE","types":["store","point_of_interest","establishment"],"vicinity":"1730 Broad Street, Augusta","heroId":77},{"geometry":{"location":{"lat":33.51136630000001,"lng":-82.03202569999999},"viewport":{"northeast":{"lat":33.51177550000001,"lng":-82.03194439999999},"southwest":{"lat":33.5101387,"lng":-82.03226960000002}}},"icon":"https://maps.gstatic.com/mapfiles/place_api/icons/shopping-71.png","id":"b51fc5226af13a9f44e9be56fff9c3807661e433","name":"New Life Natural Foods","opening_hours":{"open_now":false,"weekday_text":[]},"photos":[{"height":716,"html_attributions":["<a href=\"https://maps.google.com/maps/contrib/110168721291509012127/photos\">New Life Natural Foods</a>"],"photo_reference":"CoQBcwAAAPncU45wJNERo6-garvouoAmcJ4Vx8Lnm-JxVry3Imizfr74Xn54WMPS4vW4afsGRa2V44VclMzy4f40Zmqbdxqef5vXLtHIb21KMVo8YYjEnjtIUdlFYGZK1kvzFujfOG4nvFzwuzQKd3U4dw9bJbMO31iv3oEXy-wGbqjJg-Q3EhB25Xtg6QXuw3uPWYTNtWMWGhSdgnR8Mz_-Cv_VDQQO5q7EDaW8UQ","width":960}],"place_id":"ChIJuTwYMmTN-YgR1F4yc8E2I8k","rating":4.4,"reference":"CnRqAAAAZ2fahEpFaVnIt8tYb3TLeu2gdzphWfrn2kdooYhNeoFMvA9cIgy9GOXsUdvLb4WManBKuWFTKDROATcg8a8AugHOTsCA02dxvX6MZ3d1rF_EuOzTo_jvBvE49gWHYi3VCIno8VkKXSJ7p8j_yp9h0BIQioBOL213pjS-CQbE2iKi6hoUKBHtP70POX-oof-YLvj2vGL7rZw","scope":"GOOGLE","types":["health","restaurant","food","store","point_of_interest","establishment"],"vicinity":"2825 Washington Road, Augusta","heroId":78},{"geometry":{"location":{"lat":33.425426,"lng":-82.018942},"viewport":{"northeast":{"lat":33.4255547,"lng":-82.01806209999998},"southwest":{"lat":33.42503989999999,"lng":-82.0192353}}},"icon":"https://maps.gstatic.com/mapfiles/place_api/icons/shopping-71.png","id":"aa5882ced08df45914c07abe87a1704a11c13bc6","name":"A & R Exterminating Co Inc","place_id":"ChIJSQ1ahz_O-YgRQg4oe3HoQvg","reference":"CnRuAAAA3ec4CKFXDKJ5jfBmI6Yosr33fy7CPOj55G4smCFohExxie8jU4uA_5X9I-aMWkTyBWIyGcHpGPGoV2Mobpjy5Yugty1WkCs9Txm1KZyBRJsoe76_jjFvuWAcj7AT76JNK5qp06Pj_GiQuUPGmJ_AlBIQDA63z7dDuLXw07jNCVIfqRoUvtC7_TVqVcJpEgQ_A4nJfD3yv5M","scope":"GOOGLE","types":["home_goods_store","store","point_of_interest","establishment"],"vicinity":"2605 Peach Orchard Road, Augusta","heroId":79},{"geometry":{"location":{"lat":33.5115697,"lng":-82.034915},"viewport":{"northeast":{"lat":33.51184474999999,"lng":-82.034571},"southwest":{"lat":33.51074455000001,"lng":-82.035947}}},"icon":"https://maps.gstatic.com/mapfiles/place_api/icons/generic_business-71.png","id":"781978c884566dda1cf2be0002a8abba9d5d46f2","name":"Top Notch Express Car Wash","opening_hours":{"open_now":false,"weekday_text":[]},"place_id":"ChIJuWtc92PN-YgR5UwqagJ010M","rating":3.2,"reference":"CnRtAAAAnyWnnSxQisth99-4rzKBOIdVek0o8Yc2vt-Zc1MA6T88pFFo6gOOAmkJh0GqfO95ZZZ-uMuU7Uj7BjZmCKbVO1z1yesb9cl7bJv3gIiDty01LOc7f51VZR8Fqhbua6YUKkK3nkq39_6O2SBnzoxsaxIQVfSco8KTmc5BFfw9InnoZhoUo4fiaTbe8noHJbh27g4Ngq4qkOk","scope":"GOOGLE","types":["car_wash","point_of_interest","establishment"],"vicinity":"2841 Washington Road, Augusta","heroId":80},{"geometry":{"location":{"lat":33.425426,"lng":-82.018942},"viewport":{"northeast":{"lat":33.4255547,"lng":-82.01806209999998},"southwest":{"lat":33.42503989999999,"lng":-82.0192353}}},"icon":"https://maps.gstatic.com/mapfiles/place_api/icons/shopping-71.png","id":"aa5882ced08df45914c07abe87a1704a11c13bc6","name":"A & R Exterminating Co Inc","place_id":"ChIJSQ1ahz_O-YgRQg4oe3HoQvg","reference":"CnRuAAAA5cJO5lI_yQC5P6Uo4AuxtAkF5EjyJQ6-tujqma__FOeLy2g-xncCFyL45F_ODdmsryeZRnuSUUTa5SidLnxXM8HqdpBEcf-6EU3LwKC3Ji7W2P6VSdYD-T4bkpexkqm_BvV5qgZ9LhpW4pf5GbqvixIQPZd6b01myCVOFRTiCyUVxxoULGdmmOFzS63OgwWGOEo2o9Li6-8","scope":"GOOGLE","types":["home_goods_store","store","point_of_interest","establishment"],"vicinity":"2605 Peach Orchard Road, Augusta","heroId":81},{"geometry":{"location":{"lat":33.4100148,"lng":-82.0273775},"viewport":{"northeast":{"lat":33.41005449999999,"lng":-82.02676249999999},"southwest":{"lat":33.40989570000001,"lng":-82.02758250000001}}},"icon":"https://maps.gstatic.com/mapfiles/place_api/icons/generic_business-71.png","id":"10545d81439f79090aa8658373887706853a710a","name":"Lulu's Express Car Wash","opening_hours":{"open_now":false,"weekday_text":[]},"place_id":"ChIJKfbZSzLO-YgRHC-uaosqh40","rating":4.4,"reference":"CnRrAAAAl9EhylOysmPb0baG1JMXVrHdeHuLWcANdrsM7lTBE6Zqb_kyE2KspK7OjiB0ejT2lPDs3evJd5LKg-sBEoi-xZl2byZw0CWJsMwGp0BAepP4WBL2pdiz-YG3EKdnA5Xnj7QyoCXs_l6IgRohBjgGVhIQNDwHtRK0iTJiRfdw1rreiBoUcZ9FW8H4KLzm20W8LJ9shAYF7Iw","scope":"GOOGLE","types":["car_wash","point_of_interest","establishment"],"vicinity":"3129 Peach Orchard Road, Augusta","heroId":82},{"geometry":{"location":{"lat":33.5162648,"lng":-82.0641004},"viewport":{"northeast":{"lat":33.516815,"lng":-82.06398135000002},"southwest":{"lat":33.5146142,"lng":-82.06445754999999}}},"icon":"https://maps.gstatic.com/mapfiles/place_api/icons/shopping-71.png","id":"5ea9ed117c83b9bd21938d6f0d6e906937a849d8","name":"Taylor Hyundai","opening_hours":{"open_now":false,"weekday_text":[]},"photos":[{"height":1056,"html_attributions":["<a href=\"https://maps.google.com/maps/contrib/109546039069903566031/photos\">Taylor Hyundai</a>"],"photo_reference":"CoQBdwAAAMEwOan4ntzVrRgYQWZ-3chkc5oYf1X4vvcg0t0gAaxQ-88x56mebQZ-TZrZ-XmouOfmryigBC-5eVooCxQrXjATUrdgCx_bF96F6WYuvOkpj_m9HS-e-POG8CZxzUhIDt-UewRzOEKA6gKK5sj-fEKUJVXg8xRLyjXvK6Ou2xtAEhBsP1r6UxS6GHnzhONf6X8hGhQJ6WQvCZi1vTCFp5nO7ee4nO07bw","width":1408}],"place_id":"ChIJkem9GOvS-YgRfHAk8Ty_Dz8","rating":4.5,"reference":"CnRhAAAA3_SDq8IL5xcovHtcx5YJFocR9oH03zLPSWJ9OkanV3FPBBadU9C2gLxcasnHxUD_wEr-7Qj_8qWEg0mWGA6KkYSZqfqwQsZTvecGDl62hGh_aMXOqLMztC9cq3KT51xA4ZDV8D0wx3NMECr3-53lOhIQnlLdZIESq4lFmlIdlQjg4hoU2jCXUa-kWKhII_PYsKsk8nJDqNg","scope":"GOOGLE","types":["car_dealer","store","point_of_interest","establishment"],"vicinity":"3233 Washington Road, Augusta","heroId":83},{"geometry":{"location":{"lat":33.4256397,"lng":-82.0176948},"viewport":{"northeast":{"lat":33.4259532,"lng":-82.01757755},"southwest":{"lat":33.4255352,"lng":-82.01804655}}},"icon":"https://maps.gstatic.com/mapfiles/place_api/icons/shopping-71.png","id":"51b39de1bb7f702971d90040b02917f377f58d92","name":"Peach Orchard Tire & Auto Care","opening_hours":{"open_now":false,"weekday_text":[]},"photos":[{"height":4160,"html_attributions":["<a href=\"https://maps.google.com/maps/contrib/107970184664000333662/photos\">Kevin Hatfield</a>"],"photo_reference":"CoQBcwAAABBHbjPYJzTkYD2wtwFLuSESzKSJ2DYfnifeH-wldkCV1k0GoSbBDxe6jBsI4OC7Oy_sF4EYSxXMT--XIWcCpLYTHf5hNJToyFiNpwshcrUf_IwSnFXlNwNV-W1kxP68BkkWM0Tu-Vc1q9aAmU64SvXKPrZ9cvCl8cloWIFkA8u-EhBO4coVznf5Qd1JNYre6AgyGhTeZ6hVeKBKqoggPnQ4sITNrVO9XA","width":3120}],"place_id":"ChIJ3d0caEDO-YgR0wRDCX6I6UY","reference":"CoQBcQAAAFeRZ6ZMm8tCQeW4gUQoYyKUw1Rcu4LR7rjUXK-2KcQVQg-0jY6EhdbPvHt1jrsWbGj5y2petJqZgXhoPBR9jyct-5Le25Ey6GbdvBv6hkBa2a_0f6mMeE3hxmG83XpclhOQ9Sdfx6RhRBTVYNEkKSJRE9tFOClKp4o8B2WXqlRVEhDnOMCuA8Gk-PBW6wBGGbLbGhT5lPDPJP4lWQarnm5_X4v8BjitOA","scope":"GOOGLE","types":["car_repair","store","point_of_interest","establishment"],"vicinity":"2536 Peach Orchard Road, Augusta","heroId":84},{"geometry":{"location":{"lat":33.505382,"lng":-82.04133100000001},"viewport":{"northeast":{"lat":33.505582,"lng":-82.04112580000002},"southwest":{"lat":33.504782,"lng":-82.04194659999999}}},"icon":"https://maps.gstatic.com/mapfiles/place_api/icons/generic_business-71.png","id":"587f3f2e77eccca6f7ea44c5d323c75d00c29961","name":"Boy Scout Road Tire & Automotive","opening_hours":{"open_now":false,"weekday_text":[]},"photos":[{"height":1105,"html_attributions":["<a href=\"https://maps.google.com/maps/contrib/116869946631991521820/photos\">Boy Scout Road Tire &amp; Automotive</a>"],"photo_reference":"CoQBcwAAAJB8tXAhjaRr22pTllI9vX7IHAe8CwC8uEr_UVtE0gVI_6_VU6HW-88D8XMOXUcx7tQXDkhNChYZo0SqXnTuehSd5h-69wQhKoaRW5bQngt75H2TjncL1xl47qGx0JcokiGgd4dG9zBfW_49_6-ZaoDN7FwH9Av_J2ZTpSyO0W78EhDTL8YBaN_LjK4qlqC8bnFvGhRtUFgqSzEtd0_V02Ku7w5ZsK5CuA","width":1105}],"place_id":"ChIJN4OgJGnT-YgRCRYM8-h-XQE","rating":4.4,"reference":"CoQBcwAAACKon1OEAPYpAtotNvusFCO_AT_DaHYzSnA1X67seYI6W9-LZIpmpu6aGLxa0fflODU-834CWHIasGVP58jRv4zkez3iNmbvgdX3SZ7bO5RjCfGmENOsX-llPDQV9nOb6NXKD832-_yCQbbfTwmmtqXcjk8iAuPyaimbi-Jt3T2cEhDyTB4znYfZGGNfYTyXEtEsGhSj5n5WaXrqqrrWXa9WmaVy-x1etA","scope":"GOOGLE","types":["car_repair","store","point_of_interest","establishment"],"vicinity":"252 Boy Scout Road, Augusta","heroId":85},{"geometry":{"location":{"lat":33.4775196,"lng":-81.97335029999999},"viewport":{"northeast":{"lat":33.47801429999999,"lng":-81.97312559999997},"southwest":{"lat":33.47735470000001,"lng":-81.97342520000001}}},"icon":"https://maps.gstatic.com/mapfiles/place_api/icons/shopping-71.png","id":"1a0a36d9b5fcf865cbf2e2b599b04fd244fe4ae7","name":"International Uniform Inc","opening_hours":{"open_now":false,"weekday_text":[]},"photos":[{"height":480,"html_attributions":["<a href=\"https://maps.google.com/maps/contrib/113603793423752635100/photos\">International Uniform Inc</a>"],"photo_reference":"CoQBcwAAACLx075lBeUkgiL_O3WBYIMB39cQ-yF5CFiJELl8w0tTu3l6rIaxk9kPfcf0RZM1D1zTpsQDpj6rkljj3uaqdhxb30CQP4tZvFWdKktzb6XFlIMqxiLftps_pUC6it_Bng2JXSlH4rkOW1KFsfJjoUmHlz-yIi8GYIIE59xPr7kGEhDc9GOImjmuOnRQFql5wfI3GhQu1vs1jPuwZ9C3C6DiqLl9KZf-0g","width":720}],"place_id":"ChIJiR2usmnM-YgRIRrdJeihyBk","rating":4.3,"reference":"CnRsAAAA7LhbOYff64jqnfjbc3mYZIf_vS8Dvt6dVq7MzoaNG8IOQ459ikaTKmdYfxuNEyUTejGn9qY1bLcjwoXHW-11RFh8GPCaZ6UY3V7uRat46l-7naOEm7LHVXT0FY8BdF8WQM-yX19adDeK9Mm4-80q9xIQNHK8zF65qUEF4ZgN9VqdoBoUs_LGzLOmkdtquRPubpGvTyBAWQ8","scope":"GOOGLE","types":["clothing_store","store","point_of_interest","establishment"],"vicinity":"1216 Broad Street, Augusta","heroId":86},{"geometry":{"location":{"lat":33.5130607,"lng":-82.0265268},"viewport":{"northeast":{"lat":33.51323575000001,"lng":-82.02637775},"southwest":{"lat":33.51300234999999,"lng":-82.02697394999998}}},"icon":"https://maps.gstatic.com/mapfiles/place_api/icons/generic_business-71.png","id":"31a5e40b9bcbf606d5e72d6cb37cbde46108aa76","name":"Shapers Hair & Nail Salon","place_id":"ChIJN6tNPGnN-YgRENuqX5QK3WA","reference":"CnRsAAAA33OwbgEhqJXKS6yLKc4vWo4Sw_7R0J_DF0yp4jJgkYfbAfvuEhi_rFCGZICS9HGC9frteSVu6bz7cjLRPG-TmD7mGpwAZfK2y-qvNv9fRsAkHR892-bnfZTW-dNvuRpH2PpYBnnQn5sj0NoEZuqz2hIQMPlhBTgkE9MOn0Oup47coBoUfgmYNULJlhj3eCjKBSQfcJYmVXU","scope":"GOOGLE","types":["beauty_salon","hair_care","point_of_interest","establishment"],"vicinity":"1064 Alexander Drive, Augusta","heroId":87},{"geometry":{"location":{"lat":33.5258659,"lng":-82.1201227},"viewport":{"northeast":{"lat":33.52611115,"lng":-82.12005810000001},"southwest":{"lat":33.52578415,"lng":-82.1203165}}},"icon":"https://maps.gstatic.com/mapfiles/place_api/icons/shopping-71.png","id":"43a945f594c8e0133c9e6e1307922ed6ef5286bc","name":"Big Frog Custom T-Shirts & More","opening_hours":{"open_now":false,"weekday_text":[]},"photos":[{"height":705,"html_attributions":["<a href=\"https://maps.google.com/maps/contrib/117108664758329906903/photos\">Big Frog Custom T-Shirts &amp; More</a>"],"photo_reference":"CoQBcwAAADtU5SzF-Rd36UTn3X1tztZ3duevPXt8TztvD3vfsEiTT8ZcWcuqFIquhM7UcZf9wxnaxbIuCmos0nOZ1JJPwMSwrPTmHeQYzmSqHVHQm-EYxSQsN9vlwv7PBhuPKUB-SxasUy8p6k_4AssnPvx8INqMu8A3JG8vbitlDtQLsOq9EhD2fFm3SJ-yv2d2sg65PPipGhTOc1vChdFvPlHTqqsCsfzYnqMhmg","width":701}],"place_id":"ChIJ0wnitF3T-YgRpcflJJfSaX8","rating":4.9,"reference":"CoQBcgAAAPhPv7JZrYKjbdfJ8lFtgemAphoiIJv71Xw5VPI5iQoDd05Z9hAR2aprGzCpEc_3meZ_dPaUfZhw_pnaWxevfyBvEP5JBAcckDuC_8VAuSOV8_tXr586Inytg9XNmv1blyZ8SaAczxRWTdKBZePRS5z98jkoneDwJNVXXOm_vi5dEhAkgQCgtXVqASyYzIIkHRo8GhSqhNNCWHnbTIxQnzA1wsnxA0k-mQ","scope":"GOOGLE","types":["clothing_store","store","point_of_interest","establishment"],"vicinity":"4237 Washington Road #2, Evans","heroId":88},{"geometry":{"location":{"lat":33.4660655,"lng":-82.0001625},"viewport":{"northeast":{"lat":33.4661713,"lng":-82.00014790000002},"southwest":{"lat":33.46574810000001,"lng":-82.0002063}}},"icon":"https://maps.gstatic.com/mapfiles/place_api/icons/generic_business-71.png","id":"98292708bc155c187a3eefe02a897d5341b8dac6","name":"Dapper & Co Mens Grooming Lounge","opening_hours":{"open_now":false,"weekday_text":[]},"photos":[{"height":404,"html_attributions":["<a href=\"https://maps.google.com/maps/contrib/103626366512209700903/photos\">Dapper &amp; Co Mens Grooming Lounge</a>"],"photo_reference":"CoQBcwAAAE0OCd-ASFwrJ-vyLA3uVxiKEKdFAnWd6n7GnqDuZ2etkihRP0LnLU83O1LEcizYzbPzLeEZQlpKVxACFWROMyssqmo_4C_OgTkvpmNGRlhNz4-gZ8-Qki7BX2uHpxWrQUe_iKm69f31Cd8fZpZxo6zMUfOCEkunFDO84lg6PSBMEhA_qG3gM4WxwIB7TuqBwIaEGhSKSn7e1MwTvaInrLE7kglFjTL45g","width":402}],"place_id":"ChIJW0OChMvN-YgRJXJBvkQEvfE","rating":4.6,"reference":"CoQBdAAAADUNZtmRmNRARANRiXVn77C1qhalfP2J5ZmxObSowCV7SNIdsDvWfE0S1BmNXAgcembdX-dHeVJ6N37BYJSq-Fe-b6OjIT4h0LByUJhrnYyswwBGgXoBl7SueWv1fUVrKs7DYuR-PjA6_INI1SacS5yib5GOlsjpr46-35FPOnSzEhB3dZ2_zBFiEX2win3_EsesGhT3ynDVuxe3t1uBoXrEqCbdKpyNoA","scope":"GOOGLE","types":["beauty_salon","hair_care","spa","health","point_of_interest","establishment"],"vicinity":"1701 Wrightsboro Road, Augusta","heroId":89},{"geometry":{"location":{"lat":33.4862123,"lng":-82.03055959999999},"viewport":{"northeast":{"lat":33.48627705,"lng":-82.03054485},"southwest":{"lat":33.48615325,"lng":-82.03057305}}},"icon":"https://maps.gstatic.com/mapfiles/place_api/icons/generic_business-71.png","id":"c8c1dcd3b49a3282870eb8783a6ad6e7ae9ca6fa","name":"Michelle James Hair Production","opening_hours":{"open_now":false,"weekday_text":[]},"place_id":"ChIJRelRVIXN-YgRZsYYdAJqlBw","rating":4.5,"reference":"CoQBcQAAAOAF1LDDrWA2zrB92jTBXLZKNMCPieVpSEEoNaVnWnfd77zisX2UbAXbvGc0bq5H8gF1OAWCOEE-xf_9TjddT7sxVyj81H5-kp6Tym90MPVDlM23dphi9_WJZ202nNIN34bm4AvZTefNuMiFjip8tqU0mq8b25fWgwqYVMoDeQOyEhDBTpvNeYXOtg6qh18IkXicGhTWWeD3wIoetSmXLSpqymC3xAva4Q","scope":"GOOGLE","types":["beauty_salon","hair_care","store","point_of_interest","establishment"],"vicinity":"467 Highland Avenue, Augusta","heroId":90},{"geometry":{"location":{"lat":33.51128560000001,"lng":-82.0320978},"viewport":{"northeast":{"lat":33.51160400000001,"lng":-82.03168730000002},"southwest":{"lat":33.51033039999999,"lng":-82.03332929999999}}},"icon":"https://maps.gstatic.com/mapfiles/place_api/icons/generic_business-71.png","id":"4d4982a07f2ce697897375855556c3fb2dd29cbe","name":"His & Her Hair Salon","opening_hours":{"open_now":false,"weekday_text":[]},"photos":[{"height":4160,"html_attributions":["<a href=\"https://maps.google.com/maps/contrib/107970184664000333662/photos\">Kevin Hatfield</a>"],"photo_reference":"CoQBcwAAACgwsHcLKtz1Qfc3DCyQ-62z7I773ttIPHsFDzDIRHRiq_q-Mkme6aShmCeLyYBPcq-_Xhlr9rIrwFiKCRIIfzJxZLLOYW72inAHFu7ZFhu3GKZ81id2Me7khb4aMDeOi_MSBryObw0ue5GT9vc9xh8k_teDXWRA_9NsslTax84uEhByEx_GGc53OXYbst5USoLiGhTxWKO9gJx3EPv3h4av7ltGPUoJOg","width":3120}],"place_id":"ChIJuTwYMmTN-YgRO4cdqvQwdyA","rating":4.4,"reference":"CnRnAAAAawHmnFG0UQcRMw9QrGw67sjscj8Nxab7rgRLOBWiXprnpuuChfbesVMZ29QlbT308QOktLhjT5FWrPRtozs-cprnlnr9hyIZtlnu1tf4dBs4bS_nE45AFlWk_SGwDb3IOGFCJrbXxETUmNTruDtofhIQtvoopFU32CloU_Fi0BxkYBoUG94E-RVdDv43EMohr0XIpc2yXrY","scope":"GOOGLE","types":["beauty_salon","hair_care","point_of_interest","establishment"],"vicinity":"2825 Washington Road, Augusta","heroId":91}]